timestamp,voltage,current_q,current_d,velocity,position,temperature,axis_error,motor_error,encoder_error,ts,host_timestamp,ax,ay,az,gx,gy,gz,roll,pitch,yaw,source,lin_ax,lin_ay,lin_az,lin_accel_magnitude
0.0303521156311035,24.063084564624617,0.0514426231384277,9.888258934020996,0.0,-1.9992713928222656,28.80385431963975,0.0,0.0,0.0,290610.0,0.0303521156311035,-0.024658203,0.03515625,1.049316406,14.28222656,9.643554688,2.563476563,2.326767921,0.206695855,71.72414398,combined,-0.06207856013229317,0.01900211985525543,0.05014737077554998,0.08203405989461156
0.03737812161115396,24.05062082629485,0.0514426231384277,9.888258934020996,0.0,-1.9992713928222656,28.80363470737907,0.0,0.0,0.0,290630.558430393,0.03737812161115396,0.021802105413741873,0.04293592911246015,1.0659751613249975,12.8613760269239,4.156575724579935,3.658069308678432,2.4979870084120974,0.12272820710691915,71.81533640628113,combined,-0.01893754733832673,0.02730102279542379,0.06692769979071267,0.07472143965518448
0.04440412759120443,24.03703579706947,0.0514426231384277,9.888258934020996,0.0,-1.9992713928222656,28.80340872751469,0.0,0.0,0.0,290633.3376788332,0.04440412759120443,0.014270450531443797,0.04398764674871007,1.0753727666460529,12.77656009586821,3.57982739089991,3.0304314160870676,2.512165382961416,0.1527631311702482,71.81980832541213,combined,-0.02654191236240827,0.027781247351265623,0.07633738005877522,0.08546149080424385
0.051430133571254893,24.028136109124503,0.0514426231384277,9.888258934020996,0.0,-1.9992713928222656,28.80317323807148,0.0,0.0,0.0,290636.11692727346,0.051430133571254893,0.006738795649145722,0.04503936438495999,1.084770371967108,12.691744164812517,3.0030790572198853,2.4027935234957036,2.526343757510735,0.18279805523357728,71.82428024454312,combined,-0.03414636812020273,0.02826149565726429,0.0857473960028361,0.09652617527827961
0.05845613955130535,24.02124534248962,0.0514426231384277,9.888258934020996,0.0,-1.9992713928222656,28.80293367123146,0.0,0.0,0.0,290638.8961757136,0.05845613955130535,-0.0007928592331523446,0.046091082021209914,1.0941679772881634,12.606928233756827,2.426330723539862,1.7751556309043397,2.5405221320600537,0.2128329792969063,71.82875216367412,combined,-0.041750914667960375,0.028741767957038353,0.09515774761256002,0.10781569937445667
0.06548214553135583,24.020979213872767,0.0514426231384277,9.888258934020996,0.0,-1.9992713928222656,28.802701401819782,0.0,0.0,0.0,290654.04140727647,0.06548214553135583,-0.005632267912745848,0.058138375011940836,1.09255977834976,10.87818358270209,-2.6741484056850733,-0.9563184817237891,2.791258987978092,0.19007339504948897,71.81885112239326,combined,-0.050864555972967504,0.039795661339170334,0.09375169619786006,0.1138432178732002
0.07250815151140629,24.027930085824803,0.0514426231384277,9.888258934020996,0.0,-1.9992713928222656,28.802477082358614,0.0,0.0,0.0,290662.8185345992,0.07250815151140629,-0.014417966539187796,0.05476338084810413,1.0679705363472742,8.654973231235985,-5.433072094282812,-1.8402454890442401,2.8244895374020023,0.2070977859287896,71.80600069704543,combined,-0.060103831795245664,0.03594780682412269,0.0691918942598726,0.09844914241985563
0.07953415749145674,24.03488095777684,0.0514426231384277,9.888258934020996,0.0,-1.9992713928222656,28.80225276289745,0.0,0.0,0.0,290671.46418007737,0.07953415749145674,-0.02036425124081466,0.05444165732965094,1.040460956733394,6.6572045804008235,-7.1497626061575845,-2.6796529607028603,2.863259624093837,0.22117340178267922,71.79247312493958,combined,-0.06661104051280496,0.03517116963748039,0.04171680391639865,0.08610652484490487
0.08656016347150722,24.041831829728874,0.0514426231384277,9.888258934020996,0.0,-1.9992713928222656,28.802028443436285,0.0,0.0,0.0,290679.5180759468,0.08656016347150722,-0.013531417396930359,0.06786153984753021,0.9998080519414657,5.674062994780209,-4.175759309353202,-3.3186949911549126,2.926961054122199,0.22197770650984602,71.77589797367736,combined,-0.06082299797899724,0.04821730960016998,0.0011201073741757828,0.0776247426324972
0.09358616945155768,24.041123034516026,0.0514426231384277,9.888258934020996,0.0,-1.9992713928222656,28.801808546605326,0.0,0.0,0.0,290687.5719718162,0.09358616945155768,-0.00669858355304607,0.08128142236540947,0.9591551471495375,4.690921409159595,-1.2017560125488265,-3.9577370216069636,2.9906624841505614,0.22278201123701283,71.75932282241516,combined,-0.05503468503607745,0.06126286929655154,-0.03947535450082351,0.09132502025421234
0.10061217543160815,23.94476025507124,0.0514426231384277,9.888258934020996,0.0,-1.9992713928222656,28.80164387961541,0.0,0.0,0.0,290693.12916414376,0.10061217543160815,-0.0049060565727526905,0.08232862035737512,0.9599057664579143,5.263531302168798,1.3373298114104912,-4.140841173916811,3.042978242100479,0.2427117576080449,71.74887910138524,combined,-0.05399573009016758,0.06168599712539353,-0.038675269843124305,0.09064478808383176
0.10763818141165861,23.958787403821958,0.0514426231384277,9.888258934020996,0.0,-1.9992713928222656,28.801518185444756,0.0,0.0,0.0,290697.6088219638,0.10763818141165861,-0.00528883974974765,0.07803597951600251,0.9785254379808538,6.507576900437563,3.6887126994441894,-4.127170343223216,3.090380138892715,0.27089571718404143,71.74108160067962,combined,-0.05500640786383145,0.05666156456747204,-0.02000913718739228,0.08146535077135472
0.11466418739170907,23.977155321405863,0.0514426231384277,9.888258934020996,0.0,-1.9992713928222656,28.80139402376898,0.0,0.0,0.0,290702.0884797838,0.11466418739170907,-0.005671622926742611,0.07374333867462991,0.9971451095037934,7.751622498706327,6.040095587477888,-4.11349951252962,3.1377820356849506,0.299079676760038,71.733284099974,combined,-0.05601686743689571,0.051637018124802765,-0.0013420796713913274,0.07619758694413044
0.12169019337175954,23.99552323898977,0.0514426231384277,9.888258934020996,0.0,-1.9992713928222656,28.801269862093207,0.0,0.0,0.0,290706.5681376038,0.12169019337175954,-0.006054406103737572,0.0694506978332573,1.015764781026733,8.995668096975095,8.39147847551159,-4.099828681836025,3.185183932477187,0.3272636363360346,71.72548659926836,combined,-0.057027108614314384,0.04661235909347741,0.017325902635884516,0.07566366393002817
0.12871619935181,24.000149110826282,0.0514426231384277,9.888258934020996,0.0,-1.9992713928222656,28.801169057134405,0.0,0.0,0.0,290712.431047245,0.12871619935181,-0.007920477078369119,0.0643667189825241,1.0409500170458725,11.41026705119576,10.578657396576086,-4.1561261757718215,3.2386746738230316,0.37558094816999527,71.71477129296129,combined,-0.059509903324431054,0.04042725893925772,0.04256861029170078,0.08359353109656044
0.13574220533186046,23.99665747917997,0.0514426231384277,9.888258934020996,0.0,-1.9992713928222656,28.801082049119298,0.0,0.0,0.0,290722.8245453973,0.13574220533186046,-0.01464478612073859,0.05669085712186572,1.0876395595269481,17.658799570611976,12.228016236821155,-4.441592128311523,3.3121083125931094,0.48984137537689243,71.69449924771938,combined,-0.06681541501547918,0.03044162380167578,0.08934641458863424,0.11564503423501411
0.14276821131191092,23.993165847533657,0.0514426231384277,9.888258934020996,0.0,-1.9992713928222656,28.80099504110419,0.0,0.0,0.0,290734.7310379438,0.14276821131191092,-0.006523932936092715,0.04249780467021813,1.1216056046633294,22.83893517155445,12.529296264232077,-4.754175731049559,3.4280809499391185,0.5982600495670617,71.66023292311546,combined,-0.060002834935603,0.013789700128641134,0.12344937852708138,0.13795015436261637
0.14979421729196138,23.98967421588734,0.0514426231384277,9.888258934020996,0.0,-1.9992713928222656,28.800908033089083,0.0,0.0,0.0,290741.8486145328,0.14979421729196138,0.0030418142381078046,0.03351798294485815,1.1169007239379214,23.690880463608906,11.269471306617215,-5.243870025930391,3.5227360410245843,0.6540061454251472,71.6259453650584,combined,-0.05167906862026991,0.0033375234773633383,0.11885525160435562,0.12964735257750232
0.15682022327201184,23.99174506461999,0.0514426231384277,9.888258934020996,0.0,-1.9992713928222656,28.800828789740677,0.0,0.0,0.0,290744.67017318064,0.15682022327201184,-0.004053413983468895,0.03493014003589053,1.1067745246536353,23.518666191371835,10.770049914308157,-5.794955699346258,3.5562501492523677,0.6888856910937156,71.60806952132263,combined,-0.059127311832848486,0.003972282200014502,0.10877228176342524,0.123867781567595
0.16384622925206233,24.004203122599453,0.0514426231384277,9.888258934020996,0.0,-1.9992713928222656,28.800778033478906,0.0,0.0,0.0,290747.49173182854,0.16384622925206233,-0.011148642205045625,0.03634229712692292,1.0966483253693493,23.34645191913477,10.270628521999097,-6.3460413727621265,3.589764257480151,0.7237652367622839,71.59019367758685,combined,-0.06657507176635147,0.004606874511349321,0.09869002270460547,0.1191351503750833
0.17087223523211278,24.008333668136935,0.0514426231384277,9.888258934020996,0.0,-1.9992713928222656,28.800732744666636,0.0,0.0,0.0,290757.77590238355,0.17087223523211278,-0.023910661276310363,0.05990401703469393,1.0862226742837018,21.911930153225704,8.687611955286838,-8.069906384494722,3.7678825748319427,0.9111052935924857,71.51304916535905,combined,-0.08120292217570865,0.024018715453356362,0.08851037007399021,0.12249448506989283
0.17789824121216324,24.012464213674416,0.0514426231384277,9.888258934020996,0.0,-1.9992713928222656,28.800687455854362,0.0,0.0,0.0,290771.12472075573,0.17789824121216324,-0.007303690737550786,0.09657202345156247,1.0956637047970548,18.367096431578684,6.163803181558957,-9.046932626468834,4.120156229136681,0.9692505211419936,71.40153350076591,combined,-0.07001880195338253,0.057666175281634764,0.09839084855190239,0.13382368802780253
0.1849242471922137,24.0165947592119,0.0514426231384277,9.888258934020996,0.0,-1.9992713928222656,28.800642167042092,0.0,0.0,0.0,290773.80495768035,0.1849242471922137,-0.013945391007216519,0.10475145766013012,1.093242592106216,17.483717561711558,6.016573369825094,-9.079650362499033,4.190918940644494,0.9933769437187802,71.37869447826729,combined,-0.07767870431655015,0.0650308051076093,0.09606641181738829,0.13961282962790322
0.19195025317226416,23.98661840500107,0.0514426231384277,9.888258934020996,0.0,-1.9992713928222656,28.800627991553238,0.0,0.0,0.0,290776.48519460496,0.19195025317226416,-0.020587091276882248,0.11293089186869777,1.0908214794153774,16.60033869184443,5.869343558091232,-9.112368098529233,4.261681652152306,1.0175033662955666,71.35585545576866,combined,-0.0853378949787463,0.07239475267644783,0.09374367159928276,0.14598435703664198
0.19897625915231462,23.944901379435702,0.0514426231384277,9.888258934020996,0.0,-1.9992713928222656,28.80062452625228,0.0,0.0,0.0,290779.1654315296,0.19897625915231462,-0.027228791546547983,0.12111032607726542,1.0884003667245388,15.716959821977305,5.72211374635737,-9.145085834559433,4.332444363660118,1.0416297888723531,71.33301643327005,combined,-0.09299637246978149,0.07975802094378344,0.0914226276753396,0.15286518259064455
0.2060022651323651,23.938953949856888,0.0514426231384277,9.888258934020996,0.0,-1.9992713928222656,28.80062294006348,0.0,0.0,0.0,290800.42797881423,0.2060022651323651,-0.028886061217171393,0.11222211031360131,1.0201047558047471,21.092491045691926,1.8274873893769634,-6.120143799554127,4.949504045843742,1.200183657748089,71.1895923184283,combined,-0.10382729556618409,0.0646499167776946,0.024052198056699003,0.12465242587013405
0.21302827111241557,23.963200211765177,0.0514426231384277,9.888258934020996,0.0,-1.9992713928222656,28.80062294006348,0.0,0.0,0.0,290806.35441521165,0.21302827111241557,-0.021506953324043072,0.10093641644659906,0.9874775241364265,24.962905441717638,2.623273527021585,-5.505218148114966,5.175361772611243,1.200362328545242,71.16225525561197,combined,-0.10014309229042637,0.05206457817507547,-0.008227201709756216,0.11316822028295052
0.22005427709246603,23.987446473673465,0.0514426231384277,9.888258934020996,0.0,-1.9992713928222656,28.80062294006348,0.0,0.0,0.0,290811.622676428,0.22005427709246603,-0.01914665990662678,0.0933998990426165,0.9656245012901171,28.145976506162913,3.8853073816749637,-5.117049094107797,5.368972983545918,1.2323969318785943,71.1385806078818,combined,-0.10076895964359815,0.042887289160371114,-0.029757976166931432,0.11348673906994622
0.2270802830725165,24.011692735581754,0.0514426231384277,9.888258934020996,0.0,-1.9992713928222656,28.80062294006348,0.0,0.0,0.0,290815.83894749364,0.2270802830725165,-0.02480815696237828,0.09185585419939922,0.9609923671820924,30.230436690339467,5.892565335074583,-5.091315017884864,5.51104317921644,1.315348264126598,71.12075975821276,combined,-0.10828582479494878,0.03916070582394901,-0.034123053415400006,0.12009897379471007
0.23410628905256695,24.030454747611685,0.0514426231384277,9.888258934020996,0.0,-1.9992713928222656,28.80062294006348,0.0,0.0,0.0,290820.3773043292,0.23410628905256695,-0.030045469794532972,0.09047941550359344,0.9568584457568338,32.40274180333805,8.027828308397467,-5.054403554666195,5.662354117682092,1.3981757270603783,71.10177732892487,combined,-0.11552843532359543,0.035550280745518914,-0.037965886856259456,0.12669668659513428
0.24113229503261743,24.010079541832503,0.0514426231384277,9.888258934020996,0.0,-1.9992713928222656,28.80062294006348,0.0,0.0,0.0,290834.13086434396,0.24113229503261743,-0.02096688720377418,0.09045636192052744,0.9817837639780307,35.13765310945612,13.198317585749514,-4.685103802692771,6.0431495621337,1.4760393428945895,71.05275868766928,combined,-0.11222278515903195,0.03204522532610603,-0.012329157278970104,0.11735782076308647
0.2481583010126679,23.989704336053318,0.0514426231384277,9.888258934020996,0.0,-1.9992713928222656,28.80062294006348,0.0,0.0,0.0,290840.2131370916,0.2481583010126679,-0.020712926426268406,0.08491129109689469,1.0023106318793475,34.75220691664674,14.96662213563707,-4.5841411468398485,6.185988780555719,1.554585739922837,71.03292410086381,combined,-0.1138522406688076,0.02438089290740375,0.00849921162022671,0.11674329634902286
0.2551843069927184,24.017477389979483,0.0514426231384277,9.888258934020996,0.0,-1.9992713928222656,28.800578940486105,0.0,0.0,0.0,290844.1775152427,0.2551843069927184,-0.01998702698272345,0.08171733394173471,1.0203129353041978,32.91326197153061,15.20858857453202,-4.705124366683762,6.261729758157381,1.606571379092714,71.01921972528524,combined,-0.11406257554039588,0.0198883676376833,0.026669654197066572,0.11881535574660068
0.2622103129727688,24.05250692210049,0.0514426231384277,9.888258934020996,0.0,-1.9992713928222656,28.800528309683095,0.0,0.0,0.0,290848.1418933938,0.2622103129727688,-0.019261127539178503,0.07852337678657476,1.0383152387290477,31.074317026414487,15.45055501342697,-4.826107586527674,6.337470735759043,1.6585570182625906,71.00551534970667,combined,-0.11427222270730136,0.015395768184798347,0.04484264382409808,0.12371755439549414
0.2692363189528193,24.061176730948574,0.0514426231384277,9.888258934020996,0.0,-1.9992713928222656,28.8004325596508,0.0,0.0,0.0,290861.43766836106,0.2692363189528193,-0.03705161359792291,0.09844864580398432,1.071276953805325,23.746786661466405,13.547861374128892,-5.833439169221874,6.530508725157218,1.8775546090619426,70.94699328594182,combined,-0.13392721280102443,0.030553765182743428,0.0782989059792577,0.15811625334873625
0.2762623249328698,24.05767254301076,0.0514426231384277,9.888258934020996,0.0,-1.9992713928222656,28.800315971715673,0.0,0.0,0.0,290867.2693436992,0.2762623249328698,-0.044739857597688865,0.11453700816154382,1.0746939510737579,20.792507772404814,12.302081119283764,-5.975814055406579,6.639682455464685,2.016216833788074,70.91983082346236,combined,-0.14258912592325035,0.04371370872229745,0.08201596655677912,0.1702033076413532
0.2832883309129202,24.054168355072946,0.0514426231384277,9.888258934020996,0.0,-1.9992713928222656,28.800199383780544,0.0,0.0,0.0,290872.1684004458,0.2832883309129202,-0.052786758868239386,0.12622606091106373,1.0716352721673092,18.972429111122086,10.898188307986743,-5.949836406932052,6.740501046738355,2.121111882308895,70.89754992939828,combined,-0.15166763594493224,0.053082727420910136,0.07922778281906173,0.17915883822460885
0.2903143368929707,24.050664167135132,0.0514426231384277,9.888258934020996,0.0,-1.9992713928222656,28.80008279584542,0.0,0.0,0.0,290876.246223655,0.2903143368929707,-0.06114948204265398,0.13404122499506546,1.062874323866227,18.151090206366444,9.355066732431833,-5.775613003115403,6.833962374876304,2.1962726559495716,70.87956758538844,combined,-0.16111381998551824,0.05911328306190662,0.07070854404044313,0.18561180303257216
0.2973403428730212,24.041985363915657,0.0514426231384277,9.888258934020996,0.0,-1.9992713928222656,28.79993886984302,0.0,0.0,0.0,290882.79216582055,0.2973403428730212,-0.06912032858302009,0.14331447936356398,1.0359270033286347,18.996970135742387,6.230367541676228,-5.393688014797714,7.00592410627347,2.2952973926204345,70.85119983486587,combined,-0.17130442517799732,0.06575357730484427,0.04418978164392562,0.18873652485856054
0.3043663488530716,24.023843346572445,0.0514426231384277,9.888258934020996,0.0,-1.9992713928222656,28.79973675720588,0.0,0.0,0.0,290894.36331019667,0.3043663488530716,-0.06130212877211782,0.15363510591768584,0.9514963643343675,27.073790948213855,0.25979430212513943,-4.448935896311989,7.41517271474279,2.379942601099335,70.80455290605921,combined,-0.16964583447116577,0.072312670785746,-0.03928529828339078,0.18855282063867632
0.3113923548331221,24.00714576505266,0.0514426231384277,9.888258934020996,0.0,-1.9992713928222656,28.79953546245639,0.0,0.0,0.0,290899.8526934368,0.3113923548331221,-0.05058067713129866,0.15986694964960332,0.9066002857942891,32.03246232934802,-1.716973344288128,-3.979872386751681,7.6509760714270545,2.3895334055720676,70.78423659438933,combined,-0.16270106644678467,0.07702789360705514,-0.08363539781528628,0.19849386182998718
0.31841836081317254,23.990448183532873,0.0514426231384277,9.888258934020996,0.0,-1.9992713928222656,28.7993341677069,0.0,0.0,0.0,290911.14754938474,0.31841836081317254,-0.05562805247677365,0.16365625660631852,0.9005207204327742,36.204854966546165,4.120378924960734,-3.199842853027971,8.174431720584863,2.4885236750045174,70.7595806343768,combined,-0.17571059118167218,0.07622335596212294,-0.08838558037793909,0.21094127776773886
0.325444366793223,23.973750602013087,0.0514426231384277,9.888258934020996,0.0,-1.9992713928222656,28.79913287295741,0.0,0.0,0.0,290913.81087858963,0.325444366793223,-0.05894420947903133,0.1607302357846401,0.9070555003921448,36.513712723792594,5.892247110624348,-3.118564496012053,8.292871050572176,2.539248418191572,70.75665461302246,combined,-0.18066960673977472,0.07180275262840269,-0.08151661655290232,0.21081295230311003
0.3324703727732735,23.99532672051334,0.0514426231384277,9.888258934020996,0.0,-1.9992713928222656,28.798947523385376,0.0,0.0,0.0,290916.47420779447,0.3324703727732735,-0.062260366481289006,0.15780421496296165,0.9135902803515153,36.822570481039016,7.664115296287962,-3.0372861389961345,8.411310380559488,2.5899731613786274,70.75372859166812,combined,-0.18562813499671846,0.06738289166148297,-0.07464267699403515,0.21111557929214733
0.33949637875332395,24.02217417772551,0.0514426231384277,9.888258934020996,0.0,-1.9992713928222656,28.79876436990181,0.0,0.0,0.0,290919.13753699936,0.33949637875332395,-0.06557652348354666,0.15487819414128323,0.9201250603108858,37.13142823828543,9.435983481951562,-2.956007781980217,8.5297497105468,2.640697904565682,70.75080257031378,combined,-0.19058617172309616,0.0629637871594794,-0.06776376422161579,0.2118477167377842
0.34652238473337443,24.026766334139083,0.0514426231384277,9.888258934020996,0.0,-1.9992713928222656,28.798567338984654,0.0,0.0,0.0,290940.15249341703,0.34652238473337443,-0.0590575470469784,0.10440598825962129,0.9565969522643613,37.574781674158714,17.780776135008555,-5.416700301727287,9.116506761600995,3.0895439469032597,70.70134311053026,combined,-0.19100958461208475,0.0018164444091772342,-0.029336131304181445,0.1932577798792819
0.35354839071342486,24.016415806273834,0.0514426231384277,9.888258934020996,0.0,-1.9992713928222656,28.79836099046219,0.0,0.0,0.0,290942.7348384447,0.35354839071342486,-0.06277723352040396,0.1112149059420232,0.957511112475283,38.220998387360126,18.111765182414874,-6.18900807969733,9.197209722923189,3.161303062098451,70.68680126459942,combined,-0.19561126603708878,0.0069783455731892985,-0.028130738953434986,0.1977468158571406
0.36057439669347535,24.006065278408585,0.0514426231384277,9.888258934020996,0.0,-1.9992713928222656,28.79815464193973,0.0,0.0,0.0,290945.3171834723,0.36057439669347535,-0.06649691999382955,0.11802382362442515,0.9584252726862047,38.867215100561545,18.442754229821197,-6.961315857667379,9.277912684245383,3.2330621772936423,70.67225941866859,combined,-0.20021207100174138,0.012140611301936402,-0.026921876159927804,0.20237849498788535
0.3676004026735258,23.995714750543335,0.0514426231384277,9.888258934020996,0.0,-1.9992713928222656,28.797948293417264,0.0,0.0,0.0,290947.8995284999,0.3676004026735258,-0.0702166064672551,0.12483274130682705,0.9593394328971264,39.51343181376296,18.77374327722752,-7.7336236356374215,9.358615645567575,3.3048212924888336,70.65771757273777,combined,-0.20481200039964415,0.017303251538859657,-0.02570954495241462,0.20714328066143278
0.37462640865357627,23.996276696382765,0.0514426231384277,9.888258934020996,0.0,-1.9992713928222656,28.797754543138282,0.0,0.0,0.0,290955.66619713686,0.37462640865357627,-0.07296551779296162,0.15319635095024423,0.9662389107573788,39.7623927179264,19.492557145161317,-9.468495536560864,9.680422981936823,3.5381231864446656,70.60927808778885,combined,-0.21138249959766287,0.03998507203834538,-0.017643168292346578,0.21585330321646615
0.38165241463362676,24.04703323747919,0.0514426231384277,9.888258934020996,0.0,-1.9992713928222656,28.79762122950548,0.0,0.0,0.0,290971.40626302327,0.38165241463362676,-0.08215524692349781,0.1930522876974964,0.9837570233419305,35.887713674363425,21.316529593363992,-10.4865992836709,10.37931256209775,4.012653358581415,70.51231617718823,combined,-0.22903568164392357,0.0680602453265373,0.0025317040394395862,0.2389475883647886
0.3886784206136772,24.033534582357767,0.0514426231384277,9.888258934020996,0.0,-1.9992713928222656,28.7974384591616,0.0,0.0,0.0,290973.87342014746,0.3886784206136772,-0.0857993633275763,0.1922993712950977,0.9846002899988073,35.02938874618329,21.557462906277664,-9.824032673898449,10.470553586122683,4.095943581183114,70.50325859205567,combined,-0.2336672319615723,0.06543626024768995,0.0037634817167098156,0.24268589419745568
0.3957044265937277,24.020035927236343,0.0514426231384277,9.888258934020996,0.0,-1.9992713928222656,28.79725568881772,0.0,0.0,0.0,290976.3405772717,0.3957044265937277,-0.08944347973165483,0.19154645489269898,0.9854435566556841,34.17106381800314,21.79839621919134,-9.161466064125992,10.561794610147619,4.179233803784814,70.49420100692312,combined,-0.23829814920362707,0.062813212648163,0.004999759328372044,0.24648834696674626
0.4027304325737781,24.00653727211492,0.0514426231384277,9.888258934020996,0.0,-1.9992713928222656,28.797072918473845,0.0,0.0,0.0,290978.80773439596,0.4027304325737781,-0.09308759613573331,0.19079353849030029,0.9862868233125609,33.312738889822995,22.03932953210501,-8.49889945435354,10.653035634172552,4.262524026386513,70.48514342179057,combined,-0.2429284347137932,0.0601911169009815,0.006240533299058382,0.25035203055325506
0.4097564385538286,23.99274343285574,0.0514426231384277,9.888258934020996,0.0,-1.9992713928222656,28.796937787838548,0.0,0.0,0.0,291000.49450251955,0.4097564385538286,-0.08590966136097966,0.19635546346317168,0.9674723050264402,24.1819946954193,17.218621550489534,-8.424360664921231,11.028792780588109,4.5672587821683255,70.43591390910575,combined,-0.2399952927255743,0.05864943525818206,-0.01094205913783397,0.24729986947977478
0.4167824445338791,23.978816581218894,0.0514426231384277,9.888258934020996,0.0,-1.9992713928222656,28.796824124044118,0.0,0.0,0.0,291006.0038464069,0.4167824445338791,-0.09239955028483149,0.19709524328513423,0.9328371474971768,24.316500161418638,16.61334695211517,-8.44117384810228,11.115720877773645,4.636124529852641,70.42266301975096,combined,-0.2474700557340963,0.05776890765629805,-0.04519215193099013,0.2581104526612441
0.4238084505139295,23.96999657652677,0.0514426231384277,9.888258934020996,0.0,-1.9992713928222656,28.79670475358236,0.0,0.0,0.0,291011.51319029427,0.4238084505139295,-0.09888943920868329,0.1978350231070968,0.8982019899679137,24.451005627417977,16.00807235374081,-8.457987031283333,11.202648974959182,4.704990277536956,70.40941213039616,combined,-0.2549439939968471,0.05688900621931589,-0.07943863738619594,0.27302618228562126
0.43083445649398,23.966468407597542,0.0514426231384277,9.888258934020996,0.0,-1.9992713928222656,28.796579469736752,0.0,0.0,0.0,291017.0225341816,0.43083445649398,-0.10537932813253512,0.19857480292905938,0.8635668324386503,24.585511093417317,15.402797755366445,-8.474800214464382,11.28957707214472,4.773856025221271,70.39616124104138,combined,-0.26241710811980856,0.05600974150641361,-0.11368151824720574,0.2914160554406163
0.43786046247403043,23.96294023866831,0.0514426231384277,9.888258934020996,0.0,-1.9992713928222656,28.796454185891147,0.0,0.0,0.0,291024.20364689344,0.43786046247403043,-0.10727032639105456,0.2036185305257752,0.848671529531713,25.376599815894874,16.602276548840244,-8.548029280188068,11.415464809332455,4.87221316651988,70.38201802300536,combined,-0.26575115676277256,0.0587459511391,-0.1280043441062827,0.30076548373453504
0.4448864684540809,23.95941206973908,0.0514426231384277,9.888258934020996,0.0,-1.9992713928222656,28.79632890204554,0.0,0.0,0.0,291033.35074469465,0.4448864684540809,-0.10375307062388761,0.21372366196377401,0.8569901179730586,26.939824537780893,19.924129085706504,-8.68760291595641,11.587168732469017,5.005251921243211,70.36682543447247,combined,-0.26421699353961736,0.0657357208105967,-0.11889455693260809,0.29709883933432674
0.4519124744341314,23.95122723116189,0.0514426231384277,9.888258934020996,0.0,-1.9992713928222656,28.79620430806061,0.0,0.0,0.0,291041.11049308215,0.4519124744341314,-0.10259253882609669,0.22086599860894976,0.869964134974269,28.26595341203561,23.165772438868245,-8.714505469311545,11.7534110158509,5.145298945630997,70.35456238295991,combined,-0.2649167139588254,0.06969173495812334,-0.10512417086121262,0.29340909078532795
0.45893848041418184,23.917103923037114,0.0514426231384277,9.888258934020996,0.0,-1.9992713928222656,28.796083556721054,0.0,0.0,0.0,291045.17711811815,0.45893848041418184,-0.10770560489623252,0.2201213771984136,0.8953309001576887,28.960933274559487,26.19389899056507,-8.441477665276697,11.905114417307887,5.304001979885062,70.35009775733161,combined,-0.27156733054697146,0.06556699009557893,-0.07897001654824864,0.29031725529880664
0.4659644863942323,23.882980614912334,0.0514426231384277,9.888258934020996,0.0,-1.9992713928222656,28.7959628053815,0.0,0.0,0.0,291049.2437431542,0.4659644863942323,-0.1128186709663684,0.2193767557878774,0.9206976653411084,29.655913137083374,29.222025542261918,-8.168449861241847,12.056817818764875,5.46270501413913,70.3456331317033,combined,-0.2782175194607734,0.0614465791852975,-0.05280183657710158,0.2897735394655554
0.47299049237428276,23.9049249339206,0.0514426231384277,9.888258934020996,0.0,-1.9992713928222656,28.795798172330034,0.0,0.0,0.0,291063.18715937465,0.47299049237428276,-0.12145002384770937,0.2321131135850695,0.9941417787656794,30.83078348542111,35.29242013810325,-6.155804004525437,12.587792814276474,6.065812835643244,70.37378785945133,combined,-0.29208432025680275,0.06177318215486827,0.0236428119195895,0.2994798135582466
0.48001649835433324,23.932467435024478,0.0514426231384277,9.888258934020996,0.0,-1.9992713928222656,28.795629157823054,0.0,0.0,0.0,291069.2082870101,0.48001649835433324,-0.1352680415209832,0.2280706085716305,1.0142073040227828,30.500033063735764,35.54967046206666,-5.678053398836355,12.77811613696598,6.3505476028290575,70.38852002940884,combined,-0.3074075865179283,0.05222087748157764,0.04495767202708223,0.3150359290109911
0.48704250433438373,23.959902095936503,0.0514426231384277,9.888258934020996,0.0,-1.9992713928222656,28.795502646804657,0.0,0.0,0.0,291081.50719058135,0.48704250433438373,-0.15709601835772913,0.23381137018400897,1.0098026564017346,29.27263648580622,29.187058716061216,-4.311738798669272,13.154419631017346,6.858537146730066,70.41969174051144,combined,-0.3325418896238254,0.04798379871131439,0.043010610542729255,0.3387277164812628
0.49406851031443416,23.987287406865075,0.0514426231384277,9.888258934020996,0.0,-1.9992713928222656,28.79539558629374,0.0,0.0,0.0,291087.16933656496,0.49406851031443416,-0.15522983279542962,0.2321525380697742,0.9860951849213697,29.410872474564584,24.41791720298529,-4.000707830474426,13.330348140562483,7.048659416246074,70.42831420929318,combined,-0.33247433544775845,0.042409356410762405,0.020392378001226286,0.33578800800973907
0.5010945162944846,24.014672717793648,0.0514426231384277,9.888258934020996,0.0,-1.9992713928222656,28.79528852578282,0.0,0.0,0.0,291092.31447639025,0.5010945162944846,-0.15359055281602327,0.23347046136522603,0.9592973875776482,29.47998047,20.239633171479483,-3.845214844,13.501247714882636,7.199148341368069,70.43365251695157,combined,-0.3327662900649751,0.04046426572806,-0.00540187313885232,0.3352610040519572
0.5081205222745351,24.04205802872222,0.0514426231384277,9.888258934020996,0.0,-1.9992713928222656,28.795181465271902,0.0,0.0,0.0,291096.9427596209,0.5081205222745351,-0.15217811277848525,0.23776427893123658,0.9294101583642488,29.47998047,16.65203569366221,-3.845214844,13.667119808787584,7.310015387540442,70.43570761355447,combined,-0.3334162970869179,0.04214501316032332,-0.034377070959646816,0.33782304880691655
0.5151465282545855,24.047174299467063,0.0514426231384277,9.888258934020996,0.0,-1.9992713928222656,28.79507936912486,0.0,0.0,0.0,291108.49019185564,0.5151465282545855,-0.14906867669426585,0.24018602606305336,0.8628226723524944,26.474419390412255,10.032985032807996,-4.0524949186007095,14.05816019976804,7.53855266455836,70.43054227540115,combined,-0.33531716087126107,0.038911850908088685,-0.09884265849678797,0.35174081602021845
0.522172534234636,23.988021210584986,0.0514426231384277,9.888258934020996,0.0,-1.9992713928222656,28.795005569599372,0.0,0.0,0.0,291115.7591042263,0.522172534234636,-0.14833013292172695,0.2432055734396148,0.8185680879709182,23.444235839583733,8.398574184363405,-3.9839031209623537,14.28044772322717,7.655912360633855,70.42507195875555,combined,-0.33748613055233834,0.03891684407175455,-0.14189332385864273,0.3681645344453331
0.5291985402146865,23.992625474638537,0.0514426231384277,9.888258934020996,0.0,-1.9992713928222656,28.794968854810012,0.0,0.0,0.0,291121.3577641207,0.5291985402146865,-0.14757406097937228,0.24487015012147012,0.7884181959590938,21.134078642881924,8.049801686926322,-3.897962865508213,14.443344272738138,7.74591759787429,70.4218150188669,combined,-0.3388397627537839,0.038315903203805624,-0.17114043925035427,0.38153576923817795
0.5362245461947369,23.997229738692088,0.0514426231384277,9.888258934020996,0.0,-1.9992713928222656,28.79493214002065,0.0,0.0,0.0,291125.76509915694,0.5362245461947369,-0.14596004684915836,0.24287953273827967,0.7764206895582298,19.600765064921987,9.018210264219706,-3.8710626273602466,14.560419151628885,7.823565135819918,70.42154601717296,combined,-0.338676263756821,0.03450200804761655,-0.18245326824049513,0.3862398157663651
0.5432505521747875,24.001834002745642,0.0514426231384277,9.888258934020996,0.0,-1.9992713928222656,28.794895425231285,0.0,0.0,0.0,291131.0476728659,0.5432505521747875,-0.144421968942674,0.24207943784135524,0.770110480021207,18.069891020245098,10.50505089921144,-3.8899762579744315,14.700825088940574,7.92142267240151,70.42236660952634,combined,-0.3388550619103684,0.03144769774555181,-0.18792398826437073,0.38875073767256385
0.5502765581548379,24.014312098689512,0.0514426231384277,9.888258934020996,0.0,-1.9992713928222656,28.79496070020123,0.0,0.0,0.0,291143.4565871364,0.5502765581548379,-0.14891949556080547,0.26880233838719714,0.8392967569081705,18.000071673649074,17.220841083999552,-4.209168937125469,15.041006130597228,8.207057554481697,70.44194601020155,combined,-0.3473064106706875,0.05202210491468412,-0.11655310697673227,0.3700171199264167
0.5573025641348883,24.027771273052302,0.0514426231384277,9.888258934020996,0.0,-1.9992713928222656,28.79503868308178,0.0,0.0,0.0,291148.6491240923,0.5573025641348883,-0.1555115837528011,0.29466360668919384,0.8762504805086084,18.633926285126954,20.16826501464999,-4.114090745663413,15.193748255510219,8.337723710819409,70.45750713995713,combined,-0.35568737422133845,0.07511743302328788,-0.07859460144916985,0.37193177909588804
0.5643285701149389,24.04123044741509,0.0514426231384277,9.888258934020996,0.0,-1.9992713928222656,28.795116665962333,0.0,0.0,0.0,291153.28559916624,0.5643285701149389,-0.16520793786616303,0.30913233235490906,0.8991398111280702,17.876357660140087,21.336132708616066,-3.6080665286320808,15.319930165320494,8.461011591720203,70.47738036139147,combined,-0.3668043845627915,0.08708976130611118,-0.0548287257332527,0.38096754746877837
0.5713545760949893,24.054689621777875,0.0514426231384277,9.888258934020996,0.0,-1.9992713928222656,28.795194648842884,0.0,0.0,0.0,291157.7265414771,0.5713545760949893,-0.1759958713748568,0.3195950014786852,0.9170835597726695,16.629511062974007,21.878239926512993,-2.9575378698203343,15.436772481076614,8.58170498695384,70.49876988025217,combined,-0.3788848763455961,0.09515342516910177,-0.03604918569652926,0.3923104225408909
0.5783805820750397,24.052771081104098,0.0514426231384277,9.888258934020996,0.0,-1.9992713928222656,28.795246124267575,0.0,0.0,0.0,291171.0052123742,0.5783805820750397,-0.1953164990378449,0.29997220453412926,0.9368741963916092,10.520679362085257,17.15933190672148,1.1063588320792668,15.700444943366664,8.915684019586967,70.58476441389637,combined,-0.40094077232182734,0.06930474246075102,-0.014183730433597885,0.407133673928585
0.5854065880550902,24.029530258667943,0.0514426231384277,9.888258934020996,0.0,-1.9992713928222656,28.79520083800193,0.0,0.0,0.0,291176.7605792445,0.5854065880550902,-0.18625348253956853,0.2827594981882061,0.9332911432503302,8.553512953054627,13.014231254044166,2.8978853848770663,15.772634020815026,9.028658869252181,70.62723413509292,combined,-0.39258855869586384,0.050124003863735944,-0.01713326885616906,0.39614611077722994
0.5924325940351407,24.020425910558693,0.0514426231384277,9.888258934020996,0.0,-1.9992713928222656,28.795080588684183,0.0,0.0,0.0,291181.87255056866,0.5924325940351407,-0.1825924157196981,0.27101404352564124,0.9262455916253147,7.08055653006389,9.606813025155569,4.203407683104217,15.828756394059342,9.119179245627121,70.66423896215093,combined,-0.38948393263677733,0.036822998896822334,-0.023675697136766094,0.3919364816712996
0.5994586000151911,24.01132156244944,0.0514426231384277,9.888258934020996,0.0,-1.9992713928222656,28.794960339366437,0.0,0.0,0.0,291186.1561142913,0.5994586000151911,-0.185886659987278,0.2663079799190788,0.9147418803490751,6.243922990489305,7.149202004154473,4.883172434222745,15.86419199076149,9.180788236976943,70.69420743362322,combined,-0.39313339190194013,0.0310900000470358,-0.03484818597197015,0.39589752208972734
0.6064846059952416,24.002442302219862,0.0514426231384277,9.888258934020996,0.0,-1.9992713928222656,28.79483990715558,0.0,0.0,0.0,291193.57542418945,0.6064846059952416,-0.19325094995248648,0.2609938280626485,0.8963009164895693,5.471341405325597,3.7436014989246287,5.885971896133656,15.925401516197544,9.274845877665172,70.74662963368648,combined,-0.401184390250375,0.024199802808736848,-0.052747171865248466,0.4053600986485091
0.6135106119752921,24.009484540620846,0.0514426231384277,9.888258934020996,0.0,-1.9992713928222656,28.79470653807547,0.0,0.0,0.0,291204.28169561934,0.6135106119752921,-0.1991334701833846,0.2514545182607237,0.8826024027622449,4.883327587711646,0.5154448220021473,7.24513177774462,15.989334603056705,9.378601370591602,70.8233374986076,combined,-0.4078490317876459,0.013010892091993548,-0.06586080236683356,0.4133373456772964
0.6205366179553425,24.01652677902183,0.0514426231384277,9.888258934020996,0.0,-1.9992713928222656,28.79457316899536,0.0,0.0,0.0,291209.5316786925,0.6205366179553425,-0.19663408869182591,0.24216194584659598,0.8836918771495896,4.21041715976709,-0.7983326808253173,8.046215620560758,16.00292649423408,9.420396418112087,70.86114464796077,combined,-0.40549906486337783,0.003137852790610518,-0.06459231267307142,0.4106233122725319
0.627562623935393,24.014672136165384,0.0514426231384277,9.888258934020996,0.0,-1.9992713928222656,28.794455672286155,0.0,0.0,0.0,291220.7942982898,0.627562623935393,-0.20152938600072584,0.23296087407863672,0.8877559729221901,1.2854673051777072,-2.8620643080954227,8.830705607908957,15.981977141078726,9.4813291538236,70.94064800923809,combined,-0.41005890785499677,-0.0066271868791305255,-0.06045971960864238,0.41454505812072984
0.6345886299154435,24.01112468519882,0.0514426231384277,9.888258934020996,0.0,-1.9992713928222656,28.794341195610308,0.0,0.0,0.0,291223.4556071243,0.6345886299154435,-0.20559022099766808,0.23435780147300528,0.8822332373369939,0.6844637232350761,-3.6579879706896747,8.765732247691751,15.97787011613952,9.490570599050127,70.95796950238672,combined,-0.41407606475549863,-0.005292369380305945,-0.06597636426096698,0.41933265698983346
0.641614635895494,24.007577234232254,0.0514426231384277,9.888258934020996,0.0,-1.9992713928222656,28.79422671893446,0.0,0.0,0.0,291226.1169159588,0.641614635895494,-0.20965105599461029,0.23575472886737384,0.8767105017517977,0.08346014129245449,-4.453911633283914,8.700758887474544,15.973763091200317,9.499812044276654,70.97529099553536,combined,-0.4180932765052702,-0.003957600981997794,-0.07149297832342938,0.4241802640552709
0.6486406418755444,24.00402978326569,0.0514426231384277,9.888258934020996,0.0,-1.9992713928222656,28.794112242258617,0.0,0.0,0.0,291228.7782247933,0.6486406418755444,-0.21371189099155247,0.23715165626174237,0.8711877661666015,-0.5175434406501671,-5.249835295878153,8.635785527257339,15.969656066261113,9.50905348950318,70.99261248868399,combined,-0.42211054313273355,-0.0026228816511202346,-0.07700956179547003,0.429085845420118
0.6556666478555948,24.005850954230983,0.0514426231384277,9.888258934020996,0.0,-1.9992713928222656,28.79396259471599,0.0,0.0,0.0,291250.2939665784,0.6556666478555948,-0.2089343871150425,0.19349938730890381,0.7980666190269238,-8.169708439546064,-10.84990397316579,7.778409637511399,15.78584158691229,9.49273577782211,71.09146080556832,combined,-0.41486774804249127,-0.04479675413095549,-0.1510415938929729,0.4437742225864939
0.6626926538356454,24.012532814439336,0.0514426231384277,9.888258934020996,0.0,-1.9992713928222656,28.79378110387056,0.0,0.0,0.0,291252.87204184814,0.6626926538356454,-0.20421379027537798,0.19365674064860922,0.8042348657153325,-8.626032797791815,-10.724021391634093,7.479438506309171,15.744053487522345,9.486044085949539,71.09788081625965,combined,-0.409535127568355,-0.04431496519368741,-0.1450873217798988,0.43673008574382693
0.6697186598156958,24.02245061337596,0.0514426231384277,9.888258934020996,0.0,-1.9992713928222656,28.793586242916934,0.0,0.0,0.0,291255.4501171179,0.6697186598156958,-0.19949319343571353,0.19381409398831462,0.8104031124037412,-9.08235715603756,-10.5981388101024,7.1804673751069465,15.7022653881324,9.479352394076967,71.10430082695099,combined,-0.4042023432156029,-0.043833144649242095,-0.13913253935681202,0.42971937626630274
0.6767446657957462,24.0429735961298,0.0514426231384277,9.888258934020996,0.0,-1.9992713928222656,28.793347563934915,0.0,0.0,0.0,291258.02819238766,0.6767446657957462,-0.1947725965960491,0.19397144732802005,0.8165713590921498,-9.538681514283304,-10.472256228570707,6.881496243904723,15.660477288742454,9.472660702204395,71.11072083764232,combined,-0.3988693952518207,-0.04335129281288555,-0.13317724648222928,0.4227437853330196
0.6837706717757968,24.063496578883647,0.0514426231384277,9.888258934020996,0.0,-1.9992713928222656,28.793108884952897,0.0,0.0,0.0,291266.92521606066,0.6837706717757968,-0.19741779794200992,0.20415162000515719,0.8277983602793677,-10.141304299250503,-10.080099410874876,5.38478709836244,15.52966879614767,9.46571388957434,71.12448099980912,combined,-0.39949544860388503,-0.03239724466785829,-0.12257485994776218,0.41913099528488934
0.6907966777558472,24.056538172987448,0.0514426231384277,9.888258934020996,0.0,-1.9992713928222656,28.792862958954107,0.0,0.0,0.0,291283.9010367891,0.6907966777558472,-0.2123715790504143,0.2078146632354055,0.8158515262164343,-11.560789181414874,-12.575911405812667,3.723144531,15.291477421763167,9.440285183881672,71.12678317588328,combined,-0.41074428219557724,-0.027201998796567567,-0.13568167825634214,0.4334285776334389
0.6978226837358976,24.049475922982467,0.0514426231384277,9.888258934020996,0.0,-1.9992713928222656,28.792617005570968,0.0,0.0,0.0,291289.0983357761,0.6978226837358976,-0.2050121226069679,0.20641890416514327,0.819340923632225,-12.163503297987805,-13.717896049108038,3.723144531,15.210669619616038,9.422391117347908,71.1235277281249,combined,-0.4021604569259968,-0.027945076472449898,-0.13260763530094233,0.42438042527204917
0.704848689715948,24.042413672977485,0.0514426231384277,9.888258934020996,0.0,-1.9992713928222656,28.79237105218783,0.0,0.0,0.0,291293.86509650893,0.704848689715948,-0.20062138249971523,0.21136670678063166,0.8298071918378039,-13.376828224468408,-14.293466460950746,3.5344191155246265,15.12917158732037,9.403707297378292,71.11853380063204,combined,-0.39653109646321594,-0.02233400414694181,-0.12256004913948126,0.4156400893184246
0.7118746956959986,24.0353514229725,0.0514426231384277,9.888258934020996,0.0,-1.9992713928222656,28.79212509880469,0.0,0.0,0.0,291298.5414862111,0.7118746956959986,-0.19685378319906904,0.2176460384807363,0.8417379222550584,-14.718321850655922,-14.750145142803058,3.3060797745984716,15.047528674031437,9.384857706234433,71.11317496199868,combined,-0.39152174336558315,-0.01538841629854526,-0.11104711550022217,0.4072561119800691
0.718900701676049,24.011233366636038,0.0514426231384277,9.888258934020996,0.0,-1.9992713928222656,28.791944323921303,0.0,0.0,0.0,291306.26263180183,0.718900701676049,-0.19476133313809146,0.21398555353520501,0.8479817728071168,-18.118196293929557,-17.58737513905288,3.1010790325390327,14.92539379772832,9.336916125109548,71.098003335433,combined,-0.3876487808358787,-0.017763692976530715,-0.10547861927106295,0.4021353816751735
0.7259267076560995,23.98657276070929,0.018387001010413656,7.838057445970099,0.009432638782245113,-1.9992768951944409,28.79173387592546,0.0,0.0,0.0,291315.36382390984,0.7259267076560995,-0.19342815047286405,0.20581981107586592,0.8516480246814326,-22.451039218722098,-21.503598549220794,2.9066565940494256,14.784905794086725,9.275788495275084,71.07838402757305,combined,-0.3842913060767167,-0.024360440838349567,-0.10259948380975925,0.39849704275190867
0.73295271363615,23.96495183545225,-0.02692885302731094,5.027442325170313,0.0223638152275538,-1.9992844383800867,28.791500037170437,0.0,0.0,0.0,291324.39430969587,0.73295271363615,-0.19127388245724966,0.20941134940124864,0.8445843192963803,-24.765486081559782,-24.021539548030002,3.116055673569586,14.667877513122155,9.209364272904937,71.06460313756267,combined,-0.3805451951565322,-0.01920585900627636,-0.11035575327835467,0.3966886724605648
0.7399787196162004,23.943330910195208,-0.07224470706503483,2.2168272043705715,0.035294991672862285,-1.9992919815657326,28.791266198415414,0.0,0.0,0.0,291333.3513787332,0.7399787196162004,-0.18826705394593912,0.22521086723708975,0.8263793389202029,-24.984164524853096,-25.087596957405452,3.7447561977019705,14.57520825011473,9.1374404206174,71.05688447289046,combined,-0.3763954605461729,-0.0018511793410826705,-0.1291574367372227,0.3979429771327145
0.7470047255962509,23.931209175921925,-0.10605080644209068,-0.04115300481647241,0.04173689860870609,-1.9992957393444728,28.791011355359316,0.0,0.0,0.0,291341.15791931626,0.7470047255962509,-0.18625424475590957,0.23495254359151238,0.8160041271303056,-24.884991369913152,-25.673952269606193,4.328037528591216,14.491775891997653,9.076679665925832,71.05099077372255,combined,-0.373336469333234,0.009232839802605447,-0.1400559424095993,0.3988496354132298
0.7540307315763014,23.959729427423856,-0.09061278745210995,0.06529763648281431,0.02041467283616989,-1.999283301380451,28.79066664607071,0.0,0.0,0.0,291345.6507925742,0.7540307315763014,-0.187104336812171,0.22724687103058702,0.8281796382126204,-23.87036544938216,-24.878704928369455,4.780505843920826,14.434946987109603,9.04807004284284,71.05035320580356,combined,-0.3734180646052676,0.0022516587664357934,-0.1282012217454036,0.3948185332500976
0.7610567375563518,23.98619283415777,-0.07494152748256623,0.16631945162383727,0.0,-1.9992713928222656,28.790334980923806,0.0,0.0,0.0,291350.1436658321,0.7610567375563518,-0.18795442886843244,0.2195411984696618,0.8403551492949352,-22.855739528851185,-24.083457587132735,5.232974159250429,14.378118082221555,9.019460419759847,71.04971563788459,combined,-0.37349958425729685,-0.004729017304109795,-0.11634536059753275,0.39122953106534036
0.7680827435364023,23.966389173339756,-0.05402369940776454,0.14522419186547358,0.0,-1.9992713928222656,28.790296733245444,0.0,0.0,0.0,291354.6365390901,0.7680827435364023,-0.18880452092469388,0.2118355259087366,0.8525306603772498,-21.84111360832021,-23.28821024589601,5.685442474580032,14.321289177333508,8.990850796676854,71.0490780699656,combined,-0.3735810287250636,-0.011709190095557986,-0.10448835830088465,0.388094971851459
0.7751087495164527,23.94658551252174,-0.03310587133296285,0.12412893210710992,0.0,-1.9992713928222656,28.790258485567083,0.0,0.0,0.0,291359.12941234803,0.7751087495164527,-0.1896546129809553,0.20412985334781136,0.8647061714595645,-20.826487687789236,-22.492962904659286,6.137910789909635,14.26446027244546,8.96224117359386,71.04844050204663,combined,-0.37366239844414456,-0.018688861295457937,-0.09263021419265449,0.38542602160327544
0.7821347554965032,23.926781851703726,-0.012188043258160822,0.10303367234874591,0.0,-1.9992713928222656,28.790220237888725,0.0,0.0,0.0,291366.84153294016,0.7821347554965032,-0.17967228700118235,0.1926566995284605,0.893163806892684,-19.460675520418683,-21.52459782547503,6.267343341028295,14.156913201372017,8.8905961473108,71.04680586377796,combined,-0.36231847401289063,-0.02851131343358468,-0.06481587995485294,0.36917295391057525
0.7891607614765537,23.917740935575374,0.03290264384172366,0.060831579509870594,0.00401974278667752,-1.9992774224353416,28.790006311878315,0.0,0.0,0.0,291375.32737412833,0.7891607614765537,-0.1670864751538599,0.18027806143219763,0.9255347219370583,-18.01045852049063,-20.51462526930188,6.319136805099293,14.037176420812436,8.80860790276724,71.0449315875489,combined,-0.3482284858875688,-0.039014620992979976,-0.03316141938307815,0.35197286652563853
0.7961867674566041,23.909257828761337,0.07924615689880199,0.01753556607476031,0.008247819974311362,-1.999283764549962,28.789783280847505,0.0,0.0,0.0,291389.4581411973,0.7961867674566041,-0.1584244123270024,0.1749628396679932,0.9843461929916396,-17.44282571505316,-21.11305434634953,5.019914260400021,13.69913888303199,8.564098721004886,71.02513796442102,combined,-0.33533626101087566,-0.038858930400541114,0.02362643757905658,0.33840601793305225
0.8032127734366546,23.900774721947304,0.12558966995588103,-0.025760447360350658,0.012475897161945273,-1.999290106664582,28.7895602498167,0.0,0.0,0.0,291392.45192311105,0.8032127734366546,-0.1612883345171961,0.18133427552015954,0.9871432966072092,-17.755361709165108,-21.972362823729842,4.509852476494249,13.61145476861212,8.504643054672911,71.01374824216416,combined,-0.33705844688829656,-0.031146588804004532,0.025916606438284306,0.3394851647747708
0.8102387794167051,23.90466481450059,0.13030440766651863,-0.0402836355735692,0.012897911261288052,-1.9992907396856152,28.789342035523514,0.0,0.0,0.0,291394.968636605,0.8102387794167051,-0.16432977295946147,0.18778581167082462,0.9876041206898771,-18.062577710587146,-22.786485230518302,4.064389272670593,13.537454593459387,8.455339686260249,71.00316081103553,combined,-0.33912828375778736,-0.023578856389883274,0.025954258360414872,0.3409363266655465
0.8172647853967555,23.932381178848424,0.054857298272532884,0.0005991495336006361,0.00599083521048724,-1.999280379073436,28.789133096511232,0.0,0.0,0.0,291397.485350099,0.8172647853967555,-0.16737121140172684,0.19423734782148966,0.988064944772545,-18.369793712009184,-23.60060763730676,3.618926068846938,13.463454418306652,8.406036317847585,70.9925733799069,combined,-0.3411984497524002,-0.016009832892223685,0.025994149971396596,0.342561516658561
0.824290791376806,23.95595551687448,-0.010684227299289632,0.034357484832349655,0.0,-1.9992713928222656,28.788926937446323,0.0,0.0,0.0,291400.0134893289,0.824290791376806,-0.17042514048479399,0.2006952851905877,0.9884891647745228,-18.680133435529473,-24.420155092406546,3.1744044513093836,13.389150978944285,8.356519465668296,70.98194118602072,combined,-0.3432775157862793,-0.008428357231559908,0.025997939602714903,0.34436373635098166
0.8313167973568565,23.95244724076737,-0.01145815276944126,0.02153264801117013,0.0,-1.9992713928222656,28.788738955050555,0.0,0.0,0.0,291417.6236790132,0.8313167973568565,-0.1619754322437477,0.1882254011867677,0.9240726770571291,-24.064136348483512,-32.74622607183651,4.531699098541159,12.85551201642729,7.959599400596339,70.90982075934085,combined,-0.3280787977268434,-0.012121605071316571,-0.04146900979984547,0.3309113319322499
0.8383428033369069,23.94893896466026,-0.01223207823959289,0.008707811189990606,0.0,-1.9992713928222656,28.788550972654786,0.0,0.0,0.0,291430.9814274129,0.8383428033369069,-0.12981999944410605,0.14166115317497527,0.894945048603134,-29.59379346356333,-34.34563382683149,4.330906678940717,12.31960492357333,7.525967273762388,70.84702261589185,combined,-0.28939166978053793,-0.0492184028872267,-0.07361154607966414,0.3026361667702256
0.8453688093169573,23.945430688553152,-0.013006003709744519,-0.004117025631188917,0.0,-1.9992713928222656,28.788362990259014,0.0,0.0,0.0,291434.2484870892,0.8453688093169573,-0.12798546865996396,0.1333260034681637,0.9016051921690894,-29.97266390983113,-33.06943864077871,3.7127496356147276,12.180894096743595,7.427071961090566,70.82924312358165,combined,-0.28579050642455694,-0.055309629546171024,-0.06768019821570181,0.2988577887783018
0.8523948152970079,23.941922412446047,-0.013779929179896159,-0.016941862452368645,0.0,-1.9992713928222656,28.788175007863245,0.0,0.0,0.0,291437.5155467655,0.8523948152970079,-0.12615093787582182,0.12499085376135201,0.9082653357350451,-30.351534356098934,-31.79324345472592,3.0945925922887287,12.042183269913858,7.328176648418742,70.81146363127144,combined,-0.28219052511903975,-0.061396665528581376,-0.061740509539049526,0.29531835961065706
0.8594208212770583,23.929015482782685,-0.03610042902298087,-0.1431847159944701,0.0,-1.9992713928222656,28.788011116380254,0.0,0.0,0.0,291444.79629594076,0.8594208212770583,-0.11808132637435641,0.1219896105526366,0.9235760716757362,-29.351580680066185,-29.32976628134776,1.248621159694267,11.745411285382312,7.116394365406619,70.76278472155045,combined,-0.2703150998269786,-0.05959930224492668,-0.04794353438961463,0.28092866089511
0.8664468272571088,23.925806045532227,-0.04067484329557767,-0.1330434696877573,0.0,-1.9992713928222656,28.787833017223857,0.0,0.0,0.0,291460.55772289465,0.8664468272571088,-0.10375533854198321,0.14928994620734123,0.9541477904205713,-26.24099878755072,-26.91650391,-3.265738025863379,11.136472268225315,6.662626456449473,70.62077353111269,combined,-0.24818514073439518,-0.022188213364754822,-0.020395832527333013,0.25000834161714375
0.8734728332371593,23.925806045532227,-0.03904236287322422,-0.07920556677352998,0.0,-1.9992713928222656,28.7876494236469,0.0,0.0,0.0,291463.82304494653,0.8734728332371593,-0.1073028686644712,0.15642486623860472,0.9522743758936086,-25.144851856467895,-26.91650391,-3.803846518383813,11.020477815014615,6.581931825076988,70.58405759036611,combined,-0.2501904612580296,-0.013232834784850434,-0.02281505609006995,0.25157683042232204
0.8804988392172097,23.925806045532227,-0.03740988245087079,-0.02536766385930353,0.0,-1.9992713928222656,28.787465830069948,0.0,0.0,0.0,291467.0883669984,0.8804988392172097,-0.11085039878695914,0.16355978626986808,0.950400961366646,-24.04870492538508,-26.91650391,-4.341955010904238,10.90448336180392,6.501237193704505,70.54734164961955,combined,-0.25219802460450597,-0.004273623623093775,-0.02522847402337114,0.25349276789453934
0.8875248451972602,23.925806045532227,-0.02400930813172606,0.0077027724475208165,0.0,-1.9992713928222656,28.78727809386075,0.0,0.0,0.0,291473.59703438164,0.8875248451972602,-0.11230121673439804,0.17409324066726384,0.9402560103096796,-22.0394249504107,-26.91650391,-4.712004566330544,10.759247802040903,6.3581299710899515,70.48424774367687,combined,-0.2519138484846879,0.009183423713672673,-0.03612151161925681,0.2546560149125311
0.8945508511773107,23.925806045532227,0.016190348762820453,-0.006519841197049871,0.0,-1.9992713928222656,28.78708092377514,0.0,0.0,0.0,291481.9201663933,0.8945508511773107,-0.10578387924315627,0.1776041533309841,0.9288274649101776,-20.390152969342232,-26.564910942003277,-4.106409767515869,10.625801724566118,6.171531201684603,70.4150339028849,combined,-0.24409148322072444,0.01624559511191065,-0.048328828817415403,0.24935967443894447
0.9015768571573611,23.925806045532227,0.051751374747801775,-0.017399713215029027,0.0,-1.9992713928222656,28.786883987959005,0.0,0.0,0.0,291484.2989980935,0.9015768571573611,-0.10148618507499323,0.1727547284006658,0.9333574667426289,-20.622460752571996,-26.12933384785276,-3.5982364916412846,10.552671506781618,6.097271886420208,70.39622786095069,combined,-0.23897550312045468,0.012941393137556545,-0.044168177573403966,0.24336720949661847
0.9086028631374116,23.925806045532227,0.034112448375731755,0.010057954171109662,0.0,-1.9992713928222656,28.786689738953974,0.0,0.0,0.0,291486.6778297938,0.9086028631374116,-0.09718849090683017,0.16790530347034754,0.9378874685750801,-20.854768535801764,-25.69375675370224,-3.0900632157667003,10.479541288997117,6.023012571155812,70.37742181901648,combined,-0.23386058970797596,0.009638703920599762,-0.04000435615618836,0.23745321337750394
0.915628869117462,23.925806045532227,0.016473522003661742,0.037515621557248344,0.0,-1.9992713928222656,28.786495489948948,0.0,0.0,0.0,291489.0566614941,0.915628869117462,-0.09289079673866713,0.16305587854002926,0.9424174704075313,-21.087076319031528,-25.258179659551722,-2.5818899398921156,10.406411071212617,5.9487532558914165,70.35861577708226,combined,-0.22874674339749046,0.006337518544614507,-0.03583736213753841,0.23162373212008683
0.9226548750975125,23.925806045532227,-0.0011654043684085486,0.06497328894338747,0.0,-1.9992713928222656,28.786301240943917,0.0,0.0,0.0,291506.30936470424,0.9226548750975125,-0.09096557258760393,0.17081380519264805,1.0069109764946333,-20.48023437566275,-19.81539005039578,0.20488625932907467,9.92050299954905,5.461145200512334,70.28063329159055,combined,-0.22151225656168805,0.024433668181426033,0.026334401824431364,0.22440629373371362
0.929680881077563,23.925806045532227,-0.01880433074047857,0.09243095632952615,0.0,-1.9992713928222656,28.786106991938887,0.0,0.0,0.0,291521.74467761035,0.929680881077563,-0.09445229621582274,0.20553108294464933,0.9980525984124042,-17.54332215584925,-22.018886483474738,2.822680135054658,9.764564999385518,5.089843232748435,70.2700701349059,combined,-0.2245797785809832,0.06597662385836256,0.016425687981339032,0.23464610601689434
0.9367068870576134,23.943723670014407,-0.10344463228365894,0.03435441469312012,0.01786069461171208,-1.9993160445560694,28.78597395692686,0.0,0.0,0.0,291524.9432280739,0.9367068870576134,-0.09238292138631077,0.2065852925522323,0.9891113378212835,-17.367620530063203,-22.663125774825023,3.857367480082245,9.746578460382635,5.011901717266366,70.27782785122203,combined,-0.22268714461642442,0.06840557119652868,0.007313408502598762,0.23307160378747463
0.943732893037664,23.9564208984375,-0.19274869573256018,-0.017449061686872144,0.03530211317565293,-1.9992478096433743,28.785850751239135,0.0,0.0,0.0,291528.1417785375,0.943732893037664,-0.09031354655679877,0.20763950215981525,0.9801700772301625,-17.191918904277156,-23.30736506617532,4.892054825109848,9.728591921379753,4.933960201784296,70.28558556753815,combined,-0.22079423025459397,0.0708348630141361,-0.0017969700224309548,0.2318855300211973
0.9507588990177144,23.9564208984375,-0.256524865338537,-0.025565444780437527,0.044429482433420875,-1.9990572758217477,28.785709277024278,0.0,0.0,0.0,291541.15112171456,0.9507588990177144,-0.07893200466441873,0.188147174351261,0.9496771257854723,-15.984617396836326,-22.478051816504223,9.361222077274586,9.668020472876536,4.6061030243151455,70.36111102753034,combined,-0.21049560518127858,0.05714482530649806,-0.03293643180662309,0.22058726028511988
0.9577849049977648,23.9564208984375,-0.32030103494451384,-0.0336818278740029,0.05355685169118881,-1.9988667420001212,28.785567802809418,0.0,0.0,0.0,291545.3443550146,0.9577849049977648,-0.07253363844908242,0.18205592976793422,0.9451214893621932,-15.293593842225418,-21.428719755511775,10.333773746618261,9.64689946620476,4.48400839998132,70.39717221750554,combined,-0.2045382580712027,0.05322648937817456,-0.037720184401837,0.21468994037363612
0.9648109109778152,23.957052159042824,-0.3900066131928905,-0.03856808163553829,0.06543967001726943,-1.9986029577953515,28.785434821563463,0.0,0.0,0.0,291549.5375883147,0.9648109109778152,-0.06613527223374611,0.17596468518460742,0.940565852938914,-14.60257028761451,-20.379387694519327,11.306325415961936,9.625778459532983,4.361913775647495,70.43323340748076,combined,-0.1985784149045658,0.04930925046109183,-0.042499360978491385,0.20897603865186237
0.9718369169578658,23.960546116352276,-0.4866014008024565,-0.028806057784431943,0.08981814370299902,-1.99800699124207,28.785340354987813,0.0,0.0,0.0,291561.22981702274,0.9718369169578658,-0.06074082071681619,0.17507445091936377,0.9453102337761929,-13.858544685125576,-16.98020713131235,12.107479562395945,9.570481754484328,4.058605345080724,70.54687149905772,combined,-0.1942673228128189,0.05389609613336843,-0.03829867202395554,0.20521055082542855
0.9788629229379162,23.964040073661725,-0.583196188412021,-0.01904403393332575,0.11419661738872823,-1.9974110246887882,28.785245888412167,0.0,0.0,0.0,291563.89808979566,0.9788629229379162,-0.0593076663287076,0.17168699538400958,0.951661712904982,-14.395977556651841,-16.34505919441899,12.15633709641363,9.532125027856123,3.9835207309337384,70.57280263571722,combined,-0.1926925979438737,0.05199704688098372,-0.032148622599459054,0.20215752304019016
0.9858889289179666,23.967534030971176,-0.6797909760215854,-0.009282010082219554,0.13857509107445742,-1.9968150581355066,28.78515142183652,0.0,0.0,0.0,291566.5663625686,0.9858889289179666,-0.05787451194059901,0.16829953984865542,0.9580131920337711,-14.933410428178107,-15.709911257525626,12.205194630431315,9.49376830122792,3.9084361167867523,70.59873377237673,combined,-0.191116628775502,0.0500982823587906,-0.025996462913358442,0.19927674167804874
0.9929149348980172,23.97102798828063,-0.7763857636311515,0.00048001376888679587,0.16295356476018702,-1.9962190915822249,28.78505695526087,0.0,0.0,0.0,291569.2346353415,0.9929149348980172,-0.056441357552490405,0.16491208431330118,0.9643646711625603,-15.47084329970438,-15.074763320632254,12.254052164449002,9.455411574599717,3.8333515026397658,70.62466490903624,combined,-0.18953941380641182,0.04819979799719733,-0.019842192075192,0.19657599675290383
