timestamp,voltage,current_q,current_d,velocity,position,temperature,axis_error,motor_error,encoder_error,ts,ax,ay,az,gx,gy,gz,roll,pitch,yaw,source
,23.9564208984375,0.022257206961512566,10.018980026245117,0.0,0.7197527885437012,28.607044219970703,0,0,0,,,,,,,,,,,odrive
,23.987035751342773,0.022257206961512566,10.018980026245117,0.0,0.7197527885437012,28.606582641601562,0,0,0,,,,,,,,,,,odrive
,23.925806045532227,0.022257206961512566,10.018980026245117,0.0,0.7197527885437012,28.606475830078125,0,0,0,,,,,,,,,,,odrive
,23.925806045532227,0.022257206961512566,10.018980026245117,0.0,0.7197527885437012,28.606300354003906,0,0,0,,,,,,,,,,,odrive
,23.925806045532227,0.022257206961512566,10.018980026245117,0.0,0.7197527885437012,28.606233596801758,0,0,0,,,,,,,,,,,odrive
,23.925806045532227,0.022257206961512566,10.018980026245117,0.0,0.7197527885437012,28.605960845947266,0,0,0,,,,,,,,,,,odrive
,23.925806045532227,0.022257206961512566,10.018980026245117,0.0,0.7197527885437012,28.605852127075195,0,0,0,,,,,,,,,,,odrive
,23.971729278564453,0.022257206961512566,10.018980026245117,0.0,0.7197527885437012,28.605960845947266,0,0,0,,,,,,,,,,,odrive
,23.925806045532227,0.022257206961512566,10.018980026245117,0.0,0.7197527885437012,28.60605812072754,0,0,0,,,,,,,,,,,odrive
,23.987035751342773,0.022257206961512566,10.018980026245117,0.0,0.7197527885437012,28.6063175201416,0,0,0,,,,,,,,,,,odrive
,23.9564208984375,0.022257206961512566,10.018980026245117,0.0,0.7197527885437012,28.606319427490234,0,0,0,,,,,,,,,,,odrive
,23.925806045532227,0.022257206961512566,10.018980026245117,0.0,0.7197527885437012,28.60629653930664,0,0,0,,,,,,,,,,,odrive
,23.925806045532227,0.022257206961512566,10.018980026245117,0.0,0.7197527885437012,28.606157302856445,0,0,0,,,,,,,,,,,odrive
,23.971729278564453,0.022257206961512566,10.018980026245117,0.0,0.7197527885437012,28.60574722290039,0,0,0,,,,,,,,,,,odrive
,23.987035751342773,0.022257206961512566,10.018980026245117,0.0,0.7197527885437012,28.605501174926758,0,0,0,,,,,,,,,,,odrive
,23.9564208984375,0.022257206961512566,10.018980026245117,0.0,0.7197527885437012,28.605731964111328,0,0,0,,,,,,,,,,,odrive
,23.833959579467773,0.022257206961512566,10.018980026245117,0.0,0.7197527885437012,28.605873107910156,0,0,0,,,,,,,,,,,odrive
,23.925806045532227,0.022257206961512566,10.018980026245117,0.0,0.7197527885437012,28.60572624206543,0,0,0,,,,,,,,,,,odrive
,23.971729278564453,0.022257206961512566,10.018980026245117,0.0,0.7197527885437012,28.60569953918457,0,0,0,,,,,,,,,,,odrive
,23.987035751342773,0.022257206961512566,10.018980026245117,0.0,0.7197527885437012,28.605697631835938,0,0,0,,,,,,,,,,,odrive
,23.9564208984375,0.022257206961512566,10.018980026245117,0.0,0.7197527885437012,28.605676651000977,0,0,0,,,,,,,,,,,odrive
,23.925806045532227,0.022257206961512566,10.018980026245117,0.0,0.7197527885437012,28.605411529541016,0,0,0,,,,,,,,,,,odrive
,23.925806045532227,0.022257206961512566,10.018980026245117,0.0,0.7197527885437012,28.604745864868164,0,0,0,,,,,,,,,,,odrive
,23.925806045532227,0.022257206961512566,10.018980026245117,0.0,0.7197527885437012,28.60408592224121,0,0,0,,,,,,,,,,,odrive
,23.925806045532227,0.022257206961512566,10.018980026245117,0.0,0.7197527885437012,28.60401725769043,0,0,0,,,,,,,,,,,odrive
,23.9564208984375,0.022257206961512566,10.018980026245117,0.0,0.7197527885437012,28.603609085083008,0,0,0,,,,,,,,,,,odrive
,23.925806045532227,0.022257206961512566,10.018980026245117,0.0,0.7197527885437012,28.60334587097168,0,0,0,,,,,,,,,,,odrive
,23.925806045532227,0.022257206961512566,10.018980026245117,0.0,0.7197527885437012,28.603084564208984,0,0,0,,,,,,,,,,,odrive
,23.925806045532227,0.022257206961512566,10.018980026245117,0.0,0.7197527885437012,28.602371215820312,0,0,0,,,,,,,,,,,odrive
,24.01765251159668,0.022257206961512566,10.018980026245117,0.0,0.7197527885437012,28.60161781311035,0,0,0,,,,,,,,,,,odrive
,23.925806045532227,0.022257206961512566,10.018980026245117,0.0,0.7197527885437012,28.601341247558594,0,0,0,,,,,,,,,,,odrive
,23.9564208984375,0.022257206961512566,10.018980026245117,0.0,0.7197527885437012,28.600994110107422,0,0,0,,,,,,,,,,,odrive
,23.925806045532227,0.022257206961512566,10.018980026245117,0.0,0.7197527885437012,28.60031509399414,0,0,0,,,,,,,,,,,odrive
,23.925806045532227,0.022257206961512566,10.018980026245117,0.0,0.7197527885437012,28.600065231323242,0,0,0,,,,,,,,,,,odrive
,23.94111442565918,0.022257206961512566,10.018980026245117,0.0,0.7197527885437012,28.59955406188965,0,0,0,,,,,,,,,,,odrive
,23.9564208984375,0.022257206961512566,10.018980026245117,0.0,0.7197527885437012,28.59891128540039,0,0,0,,,,,,,,,,,odrive
,23.9564208984375,-0.08652041107416153,0.09950166195631027,-0.015258789993822575,0.7196307182312012,28.598270416259766,0,0,0,,,,,,,,,,,odrive
,24.002344131469727,-0.022740229964256287,-0.01742330938577652,0.0457763709127903,0.7198195457458496,28.598182678222656,0,0,0,,,,,,,,,,,odrive
,23.8798828125,0.07736578583717346,-0.21911576390266418,0.0,0.719846248626709,28.598081588745117,0,0,0,,,,,,,,,,,odrive
,23.94111442565918,0.0028564967215061188,-0.06073502451181412,-0.0457763709127903,0.7196383476257324,28.598081588745117,0,0,0,,,,,,,,,,,odrive
,23.987035751342773,-0.13609598577022552,0.05853293836116791,-0.0305175818502903,0.7194933891296387,28.598005294799805,0,0,0,,,,,,,,,,,odrive
,23.971729278564453,-0.022246917709708214,0.10736238956451416,0.0,0.719846248626709,28.5977725982666,0,0,0,,,,,,,,,,,odrive
,23.895191192626953,0.03900602459907532,0.030650384724140167,0.015258791856467724,0.719846248626709,28.597759246826172,0,0,0,,,,,,,,,,,odrive
,23.971729278564453,-0.030034277588129044,0.10804577171802521,0.0,0.7196307182312012,28.597759246826172,0,0,0,,,,,,,,,,,odrive
,23.9564208984375,-0.06371162831783295,0.02306658774614334,-0.0457763709127903,0.7196211814880371,28.597795486450195,0,0,0,,,,,,,,,,,odrive
,23.925806045532227,-0.06373956799507141,0.10560587048530579,0.0,0.7196307182312012,28.597824096679688,0,0,0,,,,,,,,,,,odrive
,23.971729278564453,0.008295159786939621,0.11073290556669235,0.0,0.7196269035339355,28.597824096679688,0,0,0,,,,,,,,,,,odrive
,23.971729278564453,-0.1773148775100708,-0.018980689346790314,0.0,0.7196307182312012,28.597824096679688,0,0,0,,,,,,,,,,,odrive
,23.910497665405273,-0.2511163055896759,0.190392404794693,0.0762939527630806,0.7207446098327637,28.597801208496094,0,0,0,,,,,,,,,,,odrive
,23.94111442565918,-0.060031235218048096,0.05260113999247551,0.1983642727136612,0.7245631217956543,28.597436904907227,0,0,0,,,,,,,,,,,odrive
,23.9564208984375,-0.21527685225009918,-0.041781216859817505,0.2593994438648224,0.7287001609802246,28.597274780273438,0,0,0,,,,,,,,,,,odrive
,23.925806045532227,0.48226359486579895,0.05170818045735359,0.5035400986671448,0.7432570457458496,28.5968074798584,0,0,0,,,,,,,,,,,odrive
,23.895191192626953,0.2813294231891632,0.02669580467045307,0.4577637314796448,0.7464137077331543,28.596782684326172,0,0,0,,,,,,,,,,,odrive
,23.9564208984375,-0.8935244679450989,-0.013431822881102562,0.2593994736671448,0.7531542778015137,28.596786499023438,0,0,0,,,,,,,,,,,odrive
,23.94111442565918,-1.566554069519043,-0.03762860596179962,0.3662109971046448,0.7617850303649902,28.597352981567383,0,0,0,,,,,,,,,,,odrive
,23.925806045532227,-0.18574900925159454,-0.035428524017333984,0.9155274033546448,0.7806143760681152,28.5986385345459,0,0,0,,,,,,,,,,,odrive
,23.987035751342773,-0.16374000906944275,-0.03045770525932312,0.9613037705421448,0.7852530479431152,28.598859786987305,0,0,0,,,,,,,,,,,odrive
,24.01765251159668,0.15187956392765045,-0.01849333941936493,1.1138917207717896,0.8079009056091309,28.599626541137695,0,0,0,,,,,,,,,,,odrive
,23.94111442565918,0.1223517656326294,0.04494825750589371,0.9155274629592896,0.8238406181335449,28.600059509277344,0,0,0,,,,,,,,,,,odrive
,23.971729278564453,-0.7808846831321716,-0.03862163797020912,1.0833741426467896,0.8512206077575684,28.601423263549805,0,0,0,,,,,,,,,,,odrive
,23.910497665405273,-0.11624332517385483,-0.0867365300655365,1.2359620332717896,0.8659090995788574,28.601966857910156,0,0,0,,,,,,,,,,,odrive
,23.925806045532227,0.07102827727794647,-0.03182421252131462,1.2512208223342896,0.8970675468444824,28.60312271118164,0,0,0,,,,,,,,,,,odrive
,23.925806045532227,-1.0337519645690918,-0.07935898751020432,1.2359620332717896,0.9187674522399902,28.604106903076172,0,0,0,,,,,,,,,,,odrive
,23.94111442565918,-0.5340358018875122,0.28291743993759155,1.4038087129592896,0.9343371391296387,28.604616165161133,0,0,0,,,,,,,,,,,odrive
,23.9564208984375,-1.054478645324707,0.029599487781524658,1.1749268770217896,0.9816985130310059,28.605892181396484,0,0,0,,,,,,,,,,,odrive
,23.9564208984375,-0.8593900799751282,0.016734501346945763,1.4801026582717896,0.9933276176452637,28.606264114379883,0,0,0,,,,,,,,,,,odrive
,23.910497665405273,0.20789463818073273,0.026286453008651733,1.8920899629592896,1.03102445602417,28.607316970825195,0,0,0,,,,,,,,,,,odrive
,23.925806045532227,-0.559498131275177,-0.11397074162960052,1.6784669160842896,1.0647196769714355,28.608295440673828,0,0,0,,,,,,,,,,,odrive
,23.987035751342773,-0.2941719591617584,-0.07370150834321976,1.8768311738967896,1.0952143669128418,28.60918617248535,0,0,0,,,,,,,,,,,odrive
,23.94111442565918,-1.085405945777893,-0.01421402394771576,1.7700196504592896,1.1352763175964355,28.61053466796875,0,0,0,,,,,,,,,,,odrive
,23.895191192626953,-0.8500367999076843,0.06558003276586533,1.724243402481079,1.193274974822998,28.61236572265625,0,0,0,,,,,,,,,,,odrive
,23.925806045532227,-1.3736991882324219,0.17985296249389648,1.739502191543579,1.2009367942810059,28.612625122070312,0,0,0,,,,,,,,,,,odrive
,24.002344131469727,-0.10623053461313248,0.01832868903875351,2.212524652481079,1.2432799339294434,28.613845825195312,0,0,0,,,,,,,,,,,odrive
,23.925806045532227,0.30361175537109375,0.039583295583724976,2.243042230606079,1.3296713829040527,28.616561889648438,0,0,0,,,,,,,,,,,odrive
,23.895191192626953,-0.9575152397155762,-0.04268202930688858,1.998901605606079,1.3373751640319824,28.616790771484375,0,0,0,,,,,,,,,,,odrive
,23.925806045532227,0.024389885365962982,-0.09243491291999817,2.395630121231079,1.3846697807312012,28.618179321289062,0,0,0,,,,,,,,,,,odrive
,23.94111442565918,-0.46327701210975647,0.03884260728955269,1.876831293106079,1.409299373626709,28.61884880065918,0,0,0,,,,,,,,,,,odrive
,23.987035751342773,0.029251813888549805,-0.0053137242794036865,2.273559808731079,1.4564566612243652,28.620492935180664,0,0,0,,,,,,,,,,,odrive
,23.910497665405273,-0.22956342995166779,0.2055031657218933,1.983642816543579,1.5113272666931152,28.622665405273438,0,0,0,,,,,,,,,,,odrive
,23.94111442565918,0.2619960308074951,-0.004075492266565561,1.876831293106079,1.5464377403259277,28.624128341674805,0,0,0,,,,,,,,,,,odrive
,23.895191192626953,-0.19754236936569214,-0.009757425636053085,1.831054925918579,1.5760741233825684,28.625511169433594,0,0,0,,,,,,,,,,,odrive
,23.910497665405273,0.13717669248580933,-0.017809685319662094,1.892090082168579,1.6141142845153809,28.627079010009766,0,0,0,,,,,,,,,,,odrive
,23.910497665405273,-0.11382133513689041,-0.0010863915085792542,1.571655511856079,1.6615633964538574,28.62949562072754,0,0,0,,,,,,,,,,,odrive
,23.910497665405273,0.5655614137649536,0.1300448775291443,1.846313714981079,1.6774687767028809,28.63016700744629,0,0,0,,,,,,,,,,,odrive
,23.94111442565918,-0.8965663313865662,-0.09463439136743546,1.480102777481079,1.7033782005310059,28.631778717041016,0,0,0,,,,,,,,,,,odrive
,23.925806045532227,0.6614064574241638,0.06675614416599274,1.586914300918579,1.7482028007507324,28.633943557739258,0,0,0,,,,,,,,,,,odrive
,23.925806045532227,-1.3901094198226929,0.027115890756249428,1.007080316543579,1.7639079093933105,28.63498306274414,0,0,0,,,,,,,,,,,odrive
,23.910497665405273,-0.10763828456401825,0.18188941478729248,1.388550043106079,1.7905726432800293,28.63665771484375,0,0,0,,,,,,,,,,,odrive
,24.01765251159668,0.1866258978843689,0.05319323390722275,1.358032464981079,1.820239543914795,28.638591766357422,0,0,0,,,,,,,,,,,odrive
,23.895191192626953,-1.0602976083755493,0.05992528796195984,0.7934572696685791,1.8349699974060059,28.640026092529297,0,0,0,,,,,,,,,,,odrive
,23.971729278564453,-0.1352260559797287,0.004792571067810059,1.190185785293579,1.859757900238037,28.641952514648438,0,0,0,,,,,,,,,,,odrive
,23.9564208984375,0.4751484990119934,0.03171192854642868,1.235962152481079,1.8834624290466309,28.643760681152344,0,0,0,,,,,,,,,,,odrive
,23.9564208984375,-0.363617867231369,-0.010028313845396042,0.6866457462310791,1.8987154960632324,28.64519500732422,0,0,0,,,,,,,,,,,odrive
,24.002344131469727,-1.3960012197494507,-0.014919698238372803,0.5187990665435791,1.9092764854431152,28.646915435791016,0,0,0,,,,,,,,,,,odrive
,23.910497665405273,-0.4764145314693451,-0.13260436058044434,0.7324221134185791,1.9243197441101074,28.64876937866211,0,0,0,,,,,,,,,,,odrive
,23.94111442565918,-0.3278178870677948,0.13124120235443115,0.7171633243560791,1.9397807121276855,28.65073013305664,0,0,0,,,,,,,,,,,odrive
,23.971729278564453,0.5628693103790283,-0.08006244897842407,0.8697512149810791,1.9558501243591309,28.652572631835938,0,0,0,,,,,,,,,,,odrive
,23.910497665405273,0.04923120141029358,-0.08266015350818634,0.3509523868560791,1.96766996383667,28.654460906982422,0,0,0,,,,,,,,,,,odrive
,23.895191192626953,-0.6333613991737366,-0.0017606206238269806,0.2136232852935791,1.9727320671081543,28.65660285949707,0,0,0,,,,,,,,,,,odrive
,23.895191192626953,-1.1076006889343262,0.028000062331557274,0.0915529727935791,1.9756560325622559,28.658781051635742,0,0,0,,,,,,,,,,,odrive
,23.895191192626953,-1.3535547256469727,-0.074293352663517,0.0457766056060791,1.9772639274597168,28.660900115966797,0,0,0,,,,,,,,,,,odrive
