timestamp,voltage,current_q,current_d,velocity,position,temperature,axis_error,motor_error,encoder_error,ts,host_timestamp,ax,ay,az,gx,gy,gz,roll,pitch,yaw,source
0.0,24.01765251159668,0.051442623138427734,9.888258934020996,0.0,-1.9992713928222656,28.80423927307129,0,0,0,,,,,,,,,,,,odrive
0.030352115631103516,,,,,,,,,,290610,0.030352115631103516,-0.024658203,0.03515625,1.049316406,14.28222656,9.643554688,2.563476563,2.326767921,0.206695855,71.72414398,arduino
0.030678987503051758,24.063573837280273,0.051442623138427734,9.888258934020996,0.0,-1.9992713928222656,28.803850173950195,0,0,0,,,,,,,,,,,,odrive
0.03233075141906738,,,,,,,,,,290620,0.03233075141906738,0.014770508,0.01965332,1.040771484,13.36669922,5.798339844,4.8828125,2.3720119,0.19005847,71.77496338,arduino
0.03596639633178711,,,,,,,,,,290630,0.03596639633178711,0.02331543,0.042724609,1.064086914,12.87841797,4.272460938,3.784179688,2.495138168,0.116693333,71.81443787,arduino
0.046512603759765625,24.032958984375,0.051442623138427734,9.888258934020996,0.0,-1.9992713928222656,28.803340911865234,0,0,0,,,,,,,,,,,,odrive
0.061246633529663086,,,,,,,,,,290640,0.061246633529663086,-0.00378418,0.046508789,1.097900391,12.57324219,2.197265625,1.525878906,2.546153307,0.224761844,71.83052826,arduino
0.062119483947753906,24.01765251159668,0.051442623138427734,9.888258934020996,0.0,-1.9992713928222656,28.80280876159668,0,0,0,,,,,,,,,,,,odrive
0.06224703788757324,,,,,,,,,,290650,0.06224703788757324,-0.001586914,0.059692383,1.103881836,11.90185547,-1.403808594,-0.549316406,2.775958061,0.182234555,71.82476807,arduino
0.07825684547424316,,,,,,,,,,290670,0.07825684547424316,-0.021606445,0.052001953,1.047851563,6.8359375,-7.690429688,-2.563476563,2.851678848,0.221027181,71.79548645,arduino
0.09306526184082031,24.048267364501953,0.051442623138427734,9.888258934020996,0.0,-1.9992713928222656,28.801820755004883,0,0,0,,,,,,,,,,,,odrive
0.09570431709289551,,,,,,,,,,290690,0.09570431709289551,-0.004638672,0.085327148,0.946899414,4.39453125,-0.305175781,-4.150390625,3.009866714,0.223024487,71.75432587,arduino
0.10087800025939941,23.94111442565918,0.051442623138427734,9.888258934020996,0.0,-1.9992713928222656,28.801637649536133,0,0,0,,,,,,,,,,,,odrive
0.12429928779602051,24.002344131469727,0.051442623138427734,9.888258934020996,0.0,-1.9992713928222656,28.801223754882812,0,0,0,,,,,,,,,,,,odrive
0.12707281112670898,,,,,,,,,,290710,0.12707281112670898,-0.006347656,0.066162109,1.030029297,9.948730469,10.19287109,-4.089355469,3.221498489,0.348855346,71.71951294,arduino
0.1405928134918213,,,,,,,,,,290730,0.1405928134918213,-0.019287109,0.051391602,1.119873047,21.97265625,13.36669922,-4.638671875,3.362805367,0.568724394,71.68050385,arduino
0.14519095420837402,,,,,,,,,,290740,0.14519095420837402,0.00769043,0.032592773,1.123535156,23.80371094,11.59667969,-4.8828125,3.500778437,0.631153941,71.63765717,arduino
0.15510344505310059,23.987035751342773,0.051442623138427734,9.888258934020996,0.0,-1.9992713928222656,28.80084228515625,0,0,0,,,,,,,,,,,,odrive
0.16068410873413086,24.002344131469727,0.051442623138427734,9.888258934020996,0.0,-1.9992713928222656,28.800798416137695,0,0,0,,,,,,,,,,,,odrive
0.17009210586547852,,,,,,,,,,290750,0.17009210586547852,-0.017456055,0.037597656,1.087646484,23.19335938,9.826660156,-6.8359375,3.619557142,0.754771948,71.57430267,arduino
0.1710953712463379,,,,,,,,,,290760,0.1710953712463379,-0.025756836,0.06628418,1.08581543,21.54541016,8.361816406,-8.422851563,3.810307264,0.955820441,71.49552917,arduino
0.17494988441467285,,,,,,,,,,290770,0.17494988441467285,-0.004516602,0.093139648,1.096679688,18.73779297,6.225585938,-9.033203125,4.090461731,0.959126234,71.41111755,arduino
0.1867234706878662,24.01765251159668,0.051442623138427734,9.888258934020996,0.0,-1.9992713928222656,28.800630569458008,0,0,0,,,,,,,,,,,,odrive
0.20116400718688965,,,,,,,,,,290780,0.20116400718688965,-0.029296875,0.123657227,1.087646484,15.44189453,5.676269531,-9.155273438,4.354478359,1.049142241,71.32590485,arduino
0.20216679573059082,,,,,,,,,,290790,0.20216679573059082,-0.045898438,0.131591797,1.063476563,16.23535156,3.723144531,-8.178710938,4.616662025,1.145438433,71.24925232,arduino
0.2021923065185547,23.925806045532227,0.051442623138427734,9.888258934020996,0.0,-1.9992713928222656,28.800622940063477,0,0,0,,,,,,,,,,,,odrive
0.20549488067626953,,,,,,,,,,290800,0.20549488067626953,-0.029418945,0.113037109,1.022460938,20.81298828,1.770019531,-6.164550781,4.933193684,1.200170755,71.19156647,arduino
0.21735024452209473,,,,,,,,,,290810,0.21735024452209473,-0.016967773,0.093994141,0.967407227,27.34375,3.112792969,-5.126953125,5.314295769,1.200472236,71.14543915,arduino
0.23324275016784668,24.032958984375,0.051442623138427734,9.888258934020996,0.0,-1.9992713928222656,28.800622940063477,0,0,0,,,,,,,,,,,,odrive
0.23401427268981934,,,,,,,,,,290820,0.23401427268981934,-0.030395508,0.090332031,0.956420898,32.28759766,7.873535156,-5.065917969,5.651252747,1.397213221,71.1031723,arduino
0.23645305633544922,,,,,,,,,,290830,0.23645305633544922,-0.021118164,0.094238281,0.968017578,35.33935547,11.96289063,-4.760742188,5.9454813,1.422723293,71.06620026,arduino
0.24778056144714355,,,,,,,,,,290840,0.24778056144714355,-0.020751953,0.085083008,1.001342773,34.85107422,14.95361328,-4.577636719,6.181916714,1.551790833,71.03366089,arduino
0.24907851219177246,23.987035751342773,0.051442623138427734,9.888258934020996,0.0,-1.9992713928222656,28.800622940063477,0,0,0,,,,,,,,,,,,odrive
0.26443004608154297,24.063573837280273,0.051442623138427734,9.888258934020996,0.0,-1.9992713928222656,28.800512313842773,0,0,0,,,,,,,,,,,,odrive
0.2655034065246582,,,,,,,,,,290850,0.2655034065246582,-0.018920898,0.077026367,1.04675293,30.21240234,15.56396484,-4.8828125,6.372970581,1.682922721,70.9990921,arduino
0.2675042152404785,,,,,,,,,,290860,0.2675042152404785,-0.03515625,0.094482422,1.07043457,24.47509766,13.85498047,-5.798339844,6.503594398,1.843370557,70.95368958,arduino
0.2795522212982178,,,,,,,,,,290870,0.2795522212982178,-0.048339844,0.122070313,1.076293945,19.40917969,11.71875,-6.042480469,6.690802574,2.08114481,70.90711212,arduino
0.2951200008392334,24.048267364501953,0.051442623138427734,9.888258934020996,0.0,-1.9992713928222656,28.800003051757812,0,0,0,,,,,,,,,,,,odrive
0.2967820167541504,,,,,,,,,,290880,0.2967820167541504,-0.068847656,0.141235352,1.05480957,17.39501953,7.934570313,-5.615234375,6.919996738,2.26546073,70.86301422,arduino
0.2987816333770752,,,,,,,,,,290890,0.2987816333770752,-0.069824219,0.148681641,0.987182617,23.13232422,1.831054688,-4.821777344,7.227741241,2.372319221,70.8207016,arduino
0.30053067207336426,24.032958984375,0.051442623138427734,9.888258934020996,0.0,-1.9992713928222656,28.799846649169922,0,0,0,,,,,,,,,,,,odrive
0.3115808963775635,,,,,,,,,,290900,0.3115808963775635,-0.050292969,0.16003418,0.905395508,32.16552734,-1.770019531,-3.967285156,7.65730381,2.389790773,70.78369141,arduino
0.31539106369018555,,,,,,,,,,290910,0.31539106369018555,-0.054199219,0.164916992,0.897705078,36.07177734,3.356933594,-3.234863281,8.123399734,2.466667891,70.76084137,arduino
0.3262948989868164,23.971729278564453,0.051442623138427734,9.888258934020996,0.0,-1.9992713928222656,28.799108505249023,0,0,0,,,,,,,,,,,,odrive
0.34177160263061523,,,,,,,,,,290920,0.34177160263061523,-0.066650391,0.153930664,0.922241211,37.23144531,10.00976563,-2.9296875,8.56810379,2.657124043,70.74985504,arduino
0.3423187732696533,24.032958984375,0.051442623138427734,9.888258934020996,0.0,-1.9992713928222656,28.798690795898438,0,0,0,,,,,,,,,,,,odrive
0.34371304512023926,,,,,,,,,,290930,0.34371304512023926,-0.067382813,0.113647461,0.945068359,36.92626953,14.22119141,-3.479003906,8.84823513,2.875185013,70.73305511,arduino
0.34610748291015625,,,,,,,,,,290940,0.34610748291015625,-0.058837891,0.104003906,0.956542969,37.53662109,17.76123047,-5.37109375,9.111741066,3.085306406,70.70220184,arduino
0.37331533432006836,,,,,,,,,,290950,0.37331533432006836,-0.073242188,0.130371094,0.960083008,40.0390625,19.04296875,-8.361816406,9.424259186,3.363189936,70.64588928,arduino
0.3734917640686035,23.987035751342773,0.051442623138427734,9.888258934020996,0.0,-1.9992713928222656,28.797775268554688,0,0,0,,,,,,,,,,,,odrive
0.375629186630249,,,,,,,,,,290960,0.375629186630249,-0.072753906,0.170654297,0.970947266,39.55078125,19.83642578,-10.31494141,9.876350403,3.671921253,70.58127594,arduino
0.37764763832092285,,,,,,,,,,290970,0.37764763832092285,-0.080078125,0.193481445,0.983276367,36.37695313,21.17919922,-10.86425781,10.32730579,3.96517849,70.51747894,arduino
0.3810100555419922,24.048267364501953,0.051442623138427734,9.888258934020996,0.0,-1.9992713928222656,28.797637939453125,0,0,0,,,,,,,,,,,,odrive
0.40491294860839844,24.002344131469727,0.051442623138427734,9.888258934020996,0.0,-1.9992713928222656,28.797016143798828,0,0,0,,,,,,,,,,,,odrive
0.4061257839202881,,,,,,,,,,290980,0.4061257839202881,-0.094848633,0.190429688,0.986694336,32.89794922,22.15576172,-8.178710938,10.6971283,4.302774429,70.4807663,arduino
0.40912580490112305,,,,,,,,,,291000,0.40912580490112305,-0.085327148,0.196289063,0.970581055,24.16992188,17.27294922,-8.422851563,11.02099037,4.561077595,70.43710327,arduino
0.42035794258117676,23.971729278564453,0.051442623138427734,9.888258934020996,0.0,-1.9992713928222656,28.79676628112793,0,0,0,,,,,,,,,,,,odrive
0.4346315860748291,,,,,,,,,,291020,0.4346315860748291,-0.108886719,0.198974609,0.844848633,24.65820313,15.07568359,-8.483886719,11.33655643,4.81107378,70.38899994,arduino
0.4499938488006592,,,,,,,,,,291040,0.4499938488006592,-0.101196289,0.221069336,0.863037109,28.07617188,22.33886719,-8.7890625,11.71198463,5.101961136,70.35578156,arduino
0.45084309577941895,23.9564208984375,0.051442623138427734,9.888258934020996,0.0,-1.9992713928222656,28.796222686767578,0,0,0,,,,,,,,,,,,odrive
0.4666023254394531,23.8798828125,0.051442623138427734,9.888258934020996,0.0,-1.9992713928222656,28.79595184326172,0,0,0,,,,,,,,,,,,odrive
0.467271089553833,,,,,,,,,,291050,0.467271089553833,-0.113769531,0.219238281,0.925415039,29.78515625,29.78515625,-8.117675781,12.0850296,5.492218494,70.34480286,arduino
0.4692714214324951,,,,,,,,,,291060,0.4692714214324951,-0.114135742,0.23425293,0.983520508,31.00585938,35.15625,-6.408691406,12.4870491,5.915094376,70.36598969,arduino
0.4809403419494629,,,,,,,,,,291070,0.4809403419494629,-0.137084961,0.227539063,1.016845703,30.45654297,35.58349609,-5.615234375,12.80314159,6.387987137,70.39045715,arduino
0.482222318649292,23.94111442565918,0.051442623138427734,9.888258934020996,0.0,-1.9992713928222656,28.795576095581055,0,0,0,,,,,,,,,,,,odrive
0.4851722717285156,,,,,,,,,,291080,0.4851722717285156,-0.157592773,0.23425293,1.016113281,29.23583984,30.45654297,-4.39453125,13.10758972,6.807929039,70.41739655,arduino
0.49758100509643555,,,,,,,,,,291090,0.49758100509643555,-0.154296875,0.231323242,0.974243164,29.47998047,22.03369141,-3.845214844,13.41829967,7.143706799,70.43262482,arduino
0.5127615928649902,,,,,,,,,,291100,0.5127615928649902,-0.151245117,0.240600586,0.909667969,29.47998047,14.28222656,-3.845214844,13.77668762,7.383249283,70.43706512,arduino
0.5136406421661377,24.063573837280273,0.051442623138427734,9.888258934020996,0.0,-1.9992713928222656,28.79509735107422,0,0,0,,,,,,,,,,,,odrive
0.5155706405639648,,,,,,,,,,291110,0.5155706405639648,-0.148681641,0.240112305,0.854492188,25.93994141,9.27734375,-4.089355469,14.10821438,7.566170216,70.42938232,arduino
0.5206687450408936,23.987035751342773,0.051442623138427734,9.888258934020996,0.0,-1.9992713928222656,28.795013427734375,0,0,0,,,,,,,,,,,,odrive
0.5270340442657471,,,,,,,,,,291120,0.5270340442657471,-0.148071289,0.245483398,0.792114258,21.60644531,7.751464844,-3.90625,14.40727711,7.721996784,70.42189789,arduino
0.542975664138794,,,,,,,,,,291130,0.542975664138794,-0.14440918,0.240966797,0.764892578,18.12744141,9.948730469,-3.845214844,14.67291355,7.898174763,70.42128754,arduino
0.5440289974212646,24.002344131469727,0.051442623138427734,9.888258934020996,0.0,-1.9992713928222656,28.794891357421875,0,0,0,,,,,,,,,,,,odrive
0.5455994606018066,,,,,,,,,,291140,0.5455994606018066,-0.14453125,0.251586914,0.814697266,17.578125,15.25878906,-4.272460938,14.93932819,8.120075226,70.43158722,arduino
0.5591304302215576,,,,,,,,,,291150,0.5591304302215576,-0.157226563,0.301391602,0.885864258,18.79882813,20.93505859,-4.089355469,15.23348522,8.371717453,70.46155548,arduino
0.5749514102935791,,,,,,,,,,291160,0.5749514102935791,-0.181518555,0.324951172,0.926269531,15.99121094,22.15576172,-2.624511719,15.49658775,8.643491745,70.50971985,arduino
0.5759923458099365,24.063573837280273,0.051442623138427734,9.888258934020996,0.0,-1.9992713928222656,28.795246124267578,0,0,0,,,,,,,,,,,,odrive
0.5771534442901611,,,,,,,,,,291170,0.5771534442901611,-0.196899414,0.302978516,0.9375,10.86425781,17.88330078,0.793457031,15.68783665,8.895952225,70.5773468,arduino
0.5827605724334717,24.032958984375,0.051442623138427734,9.888258934020996,0.0,-1.9992713928222656,28.795246124267578,0,0,0,,,,,,,,,,,,odrive
0.5893611907958984,,,,,,,,,,291180,0.5893611907958984,-0.181152344,0.273071289,0.931274414,7.446289063,10.68115234,3.90625,15.8132658,9.092247009,70.65113831,arduino
0.6057634353637695,,,,,,,,,,291190,0.6057634353637695,-0.188842773,0.262084961,0.904418945,5.493164063,4.943847656,5.493164063,15.89599037,9.236073494,70.72109985,arduino
0.606386661529541,24.002344131469727,0.051442623138427734,9.888258934020996,0.0,-1.9992713928222656,28.794841766357422,0,0,0,,,,,,,,,,,,odrive
0.6077804565429688,,,,,,,,,,291200,0.6077804565429688,-0.201171875,0.259033203,0.881713867,5.432128906,1.586914063,6.591796875,15.97824955,9.344514847,70.79250336,arduino
0.6211633682250977,,,,,,,,,,291210,0.6211633682250977,-0.196411133,0.241333008,0.883789063,4.150390625,-0.915527344,8.117675781,16.00413895,9.424124718,70.86451721,arduino
0.6216597557067871,24.01765251159668,0.051442623138427734,9.888258934020996,0.0,-1.9992713928222656,28.794551849365234,0,0,0,,,,,,,,,,,,odrive
0.6254656314849854,,,,,,,,,,291220,0.6254656314849854,-0.200317383,0.232543945,0.889404297,1.46484375,-2.624511719,8.850097656,15.98320293,9.478570938,70.93547821,arduino
0.6518661975860596,,,,,,,,,,291230,0.6518661975860596,-0.215576172,0.237792969,0.868652344,-0.793457031,-5.615234375,8.605957031,15.96777058,9.513296127,71.00056458,arduino
0.6519792079925537,24.002344131469727,0.051442623138427734,9.888258934020996,0.0,-1.9992713928222656,28.794057846069336,0,0,0,,,,,,,,,,,,odrive
0.6528658866882324,,,,,,,,,,291240,0.6528658866882324,-0.228149414,0.21862793,0.819580078,-4.39453125,-9.094238281,8.30078125,15.9125433,9.515212059,71.05272675,arduino
0.6548655033111572,,,,,,,,,,291250,0.6548655033111572,-0.209472656,0.193481445,0.797363281,-8.117675781,-10.86425781,7.8125,15.7906065,9.493498802,71.09072876,arduino
0.6680760383605957,24.01765251159668,0.051442623138427734,9.888258934020996,0.0,-1.9992713928222656,28.793642044067383,0,0,0,,,,,,,,,,,,odrive
0.6821184158325195,,,,,,,,,,291260,0.6821184158325195,-0.191162109,0.194091797,0.821289063,-9.887695313,-10.37597656,6.652832031,15.6285162,9.467542648,71.1156311,arduino
0.6837971210479736,24.063573837280273,0.051442623138427734,9.888258934020996,0.0,-1.9992713928222656,28.793107986450195,0,0,0,,,,,,,,,,,,odrive
0.6845042705535889,,,,,,,,,,291270,0.6845042705535889,-0.200195313,0.208618164,0.830688477,-10.25390625,-9.948730469,4.821777344,15.48578072,9.464901924,71.12841034,arduino
0.6855230331420898,,,,,,,,,,291280,0.6855230331420898,-0.217895508,0.208862305,0.813232422,-11.10839844,-11.71875,3.723144531,15.35213089,9.453716278,71.12922668,arduino
0.6990416049957275,,,,,,,,,,291290,0.6990416049957275,-0.203735352,0.206176758,0.819946289,-12.26806641,-13.91601563,3.723144531,15.19665051,9.419286728,71.12296295,arduino
0.7140660285949707,,,,,,,,,,291300,0.7140660285949707,-0.195678711,0.219604492,0.845458984,-15.13671875,-14.89257813,3.234863281,15.02206516,9.378978729,71.1115036,arduino
0.7142548561096191,24.032958984375,0.051442623138427734,9.888258934020996,0.0,-1.9992713928222656,28.792041778564453,0,0,0,,,,,,,,,,,,odrive
0.720801591873169,24.002344131469727,0.051442623138427734,9.888258934020996,0.0,-1.9992713928222656,28.79190444946289,0,0,0,,,,,,,,,,,,odrive
0.7295057773590088,,,,,,,,,,291320,0.7295057773590088,-0.192749023,0.201660156,0.853515625,-24.65820313,-23.49853516,2.807617188,14.71334076,9.244649887,71.06838989,arduino
0.7451939582824707,,,,,,,,,,291340,0.7451939582824707,-0.186035156,0.236938477,0.812866211,-25.14648438,-25.87890625,4.211425781,14.50642204,9.08405304,71.05115509,arduino
0.745673656463623,23.925806045532227,-0.10897552222013474,-0.06131996214389801,0.0457763709127903,-1.999298095703125,28.79107666015625,0,0,0,,,,,,,,,,,,odrive
0.7607576847076416,23.987035751342773,-0.07583186775445938,0.16721734404563904,0.0,-1.9992713928222656,28.79033660888672,0,0,0,,,,,,,,,,,,odrive
0.7764701843261719,,,,,,,,,,291360,0.7764701843261719,-0.189819336,0.202636719,0.86706543,-20.62988281,-22.33886719,6.225585938,14.25344849,8.956697464,71.04831696,arduino
0.7824809551239014,23.925806045532227,-0.011157337576150894,0.10199422389268875,0.0,-1.9992713928222656,28.790218353271484,0,0,0,,,,,,,,,,,,odrive
0.7930295467376709,,,,,,,,,,291380,0.7930295467376709,-0.16015625,0.173461914,0.943359375,-17.21191406,-19.95849609,6.34765625,13.97124481,8.763462067,71.04389954,arduino
0.7963676452636719,,,,,,,,,,291390,0.7963676452636719,-0.158325195,0.175048828,0.986694336,-17.45605469,-21.17919922,4.943847656,13.68354988,8.552677155,71.02406311,arduino
0.8078372478485107,23.895191192626953,0.15609268844127655,-0.05425762012600899,0.015258791856467724,-1.9992942810058594,28.789413452148438,0,0,0,,,,,,,,,,,,odrive
0.8233587741851807,23.9564208984375,-0.010581564158201218,0.036058731377124786,0.0,-1.9992713928222656,28.788951873779297,0,0,0,,,,,,,,,,,,odrive
0.8242850303649902,,,,,,,,,,291400,0.8242850303649902,-0.170410156,0.200683594,0.988525391,-18.67675781,-24.4140625,3.173828125,13.38951492,8.356773376,70.98199463,arduino
0.8285558223724365,,,,,,,,,,291410,0.8285558223724365,-0.181518555,0.209350586,0.961669922,-21.17919922,-28.93066406,3.601074219,13.11971569,8.168542862,70.94237518,arduino
0.8321774005889893,,,,,,,,,,291420,0.8321774005889893,-0.155883789,0.181640625,0.912353516,-24.96337891,-33.93554688,4.821777344,12.77315903,7.894471169,70.89967346,arduino
0.8362321853637695,,,,,,,,,,291430,0.8362321853637695,-0.130371094,0.144165039,0.892944336,-29.47998047,-34.72900391,4.516601563,12.36127377,7.555675507,70.85236359,arduino
0.8540129661560059,23.94111442565918,-0.013958171010017395,-0.019895534962415695,0.0,-1.9992713928222656,28.788131713867188,0,0,0,,,,,,,,,,,,odrive
0.8577377796173096,,,,,,,,,,291440,0.8577377796173096,-0.124755859,0.118652344,0.913330078,-30.63964844,-30.82275391,2.624511719,11.93669987,7.252971172,70.79794312,arduino
0.8608553409576416,23.925806045532227,-0.0419740155339241,-0.17588913440704346,0.0,-1.9992713928222656,28.787979125976562,0,0,0,,,,,,,,,,,,odrive
0.8612468242645264,,,,,,,,,,291450,0.8612468242645264,-0.110839844,0.125610352,0.934692383,-27.95410156,-27.70996094,-0.244140625,11.53787422,6.968216419,70.72463989,arduino
0.8652467727661133,,,,,,,,,,291460,0.8652467727661133,-0.103149414,0.148071289,0.954467773,-26.42822266,-26.91650391,-3.173828125,11.15628433,6.676409245,70.62704468,arduino
0.8853809833526611,23.925806045532227,-0.03627552464604378,0.01204255223274231,0.0,-1.9992713928222656,28.787338256835938,0,0,0,,,,,,,,,,,,odrive
0.8867638111114502,,,,,,,,,,291470,0.8867638111114502,-0.114013672,0.169921875,0.948730469,-23.07128906,-26.91650391,-4.821777344,10.80105305,6.429283142,70.51460266,arduino
0.8888795375823975,,,,,,,,,,291480,0.8888795375823975,-0.10925293,0.181518555,0.925170898,-20.20263672,-26.91650391,-4.516601563,10.68483162,6.231472492,70.43021393,arduino
0.9010133743286133,23.925806045532227,0.05316600948572159,-0.01960180699825287,0.0,-1.9992713928222656,28.78689956665039,0,0,0,,,,,,,,,,,,odrive
0.9184150695800781,,,,,,,,,,291490,0.9184150695800781,-0.091186523,0.161132813,0.944213867,-21.17919922,-25.08544922,-2.380371094,10.37741089,5.919305325,70.35115814,arduino
0.9213933944702148,,,,,,,,,,291500,0.9213933944702148,-0.088500977,0.157104492,0.985961914,-21.78955078,-21.24023438,-0.48828125,10.06042957,5.650154591,70.29884338,arduino
0.9233927726745605,,,,,,,,,,291510,0.9233927726745605,-0.092407227,0.178833008,1.019165039,-19.71435547,-18.98193359,0.610351563,9.838653564,5.350584984,70.26998138,arduino
0.9258484840393066,,,,,,,,,,291520,0.9258484840393066,-0.095581055,0.204956055,1.002929688,-17.63916016,-21.66748047,2.258300781,9.774375916,5.132357121,70.26583862,arduino
0.9319894313812256,23.925806045532227,-0.024599991738796234,0.1014527827501297,0.0,-1.9992713928222656,28.786043167114258,0,0,0,,,,,,,,,,,,odrive
0.9400498867034912,23.9564208984375,-0.15931746363639832,-0.013194483704864979,0.03051757998764515,-1.9993476867675781,28.785924911499023,0,0,0,,,,,,,,,,,,odrive
0.9478147029876709,,,,,,,,,,291530,0.9478147029876709,-0.089111328,0.208251953,0.974975586,-17.08984375,-23.68164063,5.493164063,9.718142509,4.888679504,70.29009247,arduino
0.9488301277160645,,,,,,,,,,291540,0.9488301277160645,-0.080688477,0.189819336,0.950927734,-16.17431641,-22.76611328,9.094238281,9.673818588,4.639620304,70.35121155,arduino
0.9635415077209473,23.9564208984375,-0.37255463004112244,-0.04033180698752403,0.0610351599752903,-1.9987106323242188,28.785451889038086,0,0,0,,,,,,,,,,,,odrive
0.9655857086181641,,,,,,,,,,291550,0.9655857086181641,-0.065429688,0.175292969,0.940063477,-14.52636719,-20.26367188,11.41357422,9.623449326,4.348449707,70.43721008,arduino
0.9685986042022705,,,,,,,,,,291560,0.9685986042022705,-0.061401367,0.176635742,0.942382813,-13.61083984,-17.27294922,12.08496094,9.588160515,4.093212128,70.53491974,arduino
0.9943251609802246,23.971729278564453,-0.7957738041877747,0.0024394001811742783,0.1678466945886612,-1.9960994720458984,28.785037994384766,0,0,0,,,,,,,,,,,,odrive
0.9949302673339844,,,,,,,,,,291570,0.9949302673339844,-0.056030273,0.16394043,0.966186523,-15.625,-14.89257813,12.26806641,9.44440937,3.811814308,70.63210297,arduino
0.9979469776153564,,,,,,,,,,291580,0.9979469776153564,-0.043579102,0.160766602,0.981445313,-16.54052734,-12.87841797,11.16943359,9.272391319,3.553031445,70.72090912,arduino
1.0009310245513916,,,,,,,,,,291590,1.0009310245513916,-0.068359375,0.168945313,0.964355469,-15.01464844,-12.57324219,9.521484375,9.221031189,3.476278543,70.80059052,arduino
1.0016181468963623,23.94111442565918,-0.6914951801300049,0.07299688458442688,0.1220703274011612,-1.995565414428711,28.78497314453125,0,0,0,,,,,,,,,,,,odrive
1.005232334136963,,,,,,,,,,291600,1.005232334136963,-0.059692383,0.158691406,0.947631836,-12.81738281,-13.24462891,9.704589844,9.206390381,3.360108852,70.88192749,arduino
1.025749921798706,,,,,,,,,,291610,1.025749921798706,-0.044433594,0.164306641,0.952880859,-7.568359375,-12.14599609,10.98632813,9.206846237,3.132894993,70.97525024,arduino
1.0257587432861328,23.971729278564453,-0.6005834341049194,0.03143719211220741,0.3814697563648224,-1.9889717102050781,28.78485107421875,0,0,0,,,,,,,,,,,,odrive
1.029433012008667,,,,,,,,,,291620,1.029433012008667,-0.034545898,0.187866211,0.952758789,-4.760742188,-9.216308594,11.23046875,9.263757706,2.968133926,71.07683563,arduino
1.041351556777954,23.925806045532227,-0.4500702917575836,-0.06004633754491806,0.4730225205421448,-1.9829330444335938,28.78490447998047,0,0,0,,,,,,,,,,,,odrive
1.0588936805725098,,,,,,,,,,291630,1.0588936805725098,-0.030029297,0.139526367,0.958007813,-5.310058594,-6.286621094,11.59667969,9.143865585,2.799778223,71.17775726,arduino
1.0609288215637207,,,,,,,,,,291650,1.0609288215637207,-0.005493164,0.098632813,1.04309082,10.37597656,4.516601563,7.995605469,9.157544136,2.768883944,71.25939178,arduino
1.072662115097046,23.971729278564453,-0.5893340110778809,-0.05789460241794586,0.4119873642921448,-1.9618358612060547,28.78502082824707,0,0,0,,,,,,,,,,,,odrive
1.0800786018371582,24.032958984375,-0.7480822205543518,-0.06952977180480957,0.3967285752296448,-1.9599018096923828,28.78502082824707,0,0,0,,,,,,,,,,,,odrive
1.0875945091247559,,,,,,,,,,291670,1.0875945091247559,-0.05480957,0.197753906,1.119262695,6.103515625,-1.403808594,9.765625,9.336380005,2.738311291,71.35908508,arduino
1.1033244132995605,,,,,,,,,,291690,1.1033244132995605,-0.033569336,0.178222656,1.137329102,4.943847656,-3.479003906,13.12255859,9.348932266,2.576949358,71.48101807,arduino
1.103440761566162,24.032958984375,-0.8014739155769348,0.09766646474599838,0.5187988877296448,-1.9475727081298828,28.78511619567871,0,0,0,,,,,,,,,,,,odrive
1.1076505184173584,,,,,,,,,,291700,1.1076505184173584,-0.032226563,0.171386719,1.111206055,2.9296875,-7.568359375,13.12255859,9.323241234,2.3843503,71.59568024,arduino
1.134263038635254,23.925806045532227,-0.41104593873023987,0.16191117465496063,0.8087158799171448,-1.9234352111816406,28.785747528076172,0,0,0,,,,,,,,,,,,odrive
1.1357519626617432,,,,,,,,,,291710,1.1357519626617432,0.001831055,0.149780273,1.089477539,0.671386719,-11.59667969,12.08496094,9.275108337,2.15292716,71.69386292,arduino
1.1389739513397217,,,,,,,,,,291720,1.1389739513397217,-0.016113281,0.163085938,1.113769531,-0.183105469,-10.13183594,8.30078125,9.20980835,1.946787715,71.757164,arduino
1.1389739513397217,,,,,,,,,,291730,1.1389739513397217,-0.026367188,0.194091797,1.095947266,0,-9.338378906,5.981445313,9.304237366,1.779218912,71.80432129,arduino
1.141247034072876,24.01765251159668,-0.49824464321136475,-0.07998290657997131,0.8239746689796448,-1.919961929321289,28.785808563232422,0,0,0,,,,,,,,,,,,odrive
1.165586233139038,24.002344131469727,0.24014312028884888,0.025605343282222748,1.1596680879592896,-1.893320083618164,28.786510467529297,0,0,0,,,,,,,,,,,,odrive
1.1669259071350098,,,,,,,,,,291740,1.1669259071350098,-0.030151367,0.195800781,1.072265625,-1.708984375,-10.55908203,4.760742188,9.399430275,1.646572948,71.83756256,arduino
1.1699426174163818,,,,,,,,,,291750,1.1699426174163818,-0.020141602,0.186279297,1.073242188,-4.150390625,-10.25390625,3.784179688,9.427716255,1.448329806,71.86009216,arduino
1.1734278202056885,,,,,,,,,,291760,1.1734278202056885,-0.015258789,0.166137695,1.061645508,-5.676269531,-8.483886719,2.44140625,9.297995567,1.27358222,71.86864471,arduino
1.1767370700836182,,,,,,,,,,291770,1.1767370700836182,-0.01940918,0.148071289,1.01940918,-5.004882813,-7.080078125,-0.183105469,9.136455536,1.183106542,71.85305023,arduino
1.181131362915039,24.048267364501953,-0.6967405676841736,0.040562309324741364,0.7171632051467896,-1.8816337585449219,28.78676414489746,0,0,0,,,,,,,,,,,,odrive
1.197986364364624,,,,,,,,,,291780,1.197986364364624,-0.006591797,0.151000977,1.005981445,-0.9765625,-4.272460938,-2.746582031,9.058318138,1.053651929,71.81782532,arduino
1.2009906768798828,,,,,,,,,,291790,1.2009906768798828,-0.014404297,0.178833008,1.034545898,2.014160156,0.9765625,-5.310058594,9.184372902,1.033547759,71.76885986,arduino
1.2049298286437988,,,,,,,,,,291800,1.2049298286437988,-0.030395508,0.205200195,1.07409668,3.051757813,4.943847656,-7.263183594,9.320777893,1.130721569,71.70709991,arduino
1.2118136882781982,24.002344131469727,-0.196377694606781,-0.0024084853939712048,1.0986329317092896,-1.8476905822753906,28.787662506103516,0,0,0,,,,,,,,,,,,odrive
1.2206621170043945,23.910497665405273,-0.5038313865661621,-0.08231697231531143,1.1749268770217896,-1.8410930633544922,28.78786849975586,0,0,0,,,,,,,,,,,,odrive
1.2283780574798584,,,,,,,,,,291810,1.2283780574798584,-0.037231445,0.210083008,1.08215332,4.39453125,5.737304688,-7.32421875,9.465392113,1.248524666,71.64627838,arduino
1.229393482208252,,,,,,,,,,291820,1.229393482208252,-0.040771484,0.196411133,1.08215332,4.760742188,6.469726563,-6.896972656,9.589485168,1.406582236,71.59072876,arduino
1.242389440536499,23.94111442565918,-1.0210915803909302,0.10564560443162918,0.9765626192092896,-1.8121261596679688,28.788766860961914,0,0,0,,,,,,,,,,,,odrive
1.2435235977172852,,,,,,,,,,291830,1.2435235977172852,-0.042724609,0.1953125,1.100708008,4.39453125,8.056640625,-6.774902344,9.690928459,1.594881892,71.53897095,arduino
1.246720552444458,,,,,,,,,,291840,1.246720552444458,-0.049560547,0.186279297,1.135375977,3.540039063,9.338378906,-6.896972656,9.67969799,1.803799629,71.48538208,arduino
1.2735426425933838,23.925806045532227,-0.057873375713825226,0.1458943486213684,1.4801026582717896,-1.770040512084961,28.790212631225586,0,0,0,,,,,,,,,,,,odrive
1.2772800922393799,,,,,,,,,,291850,1.2772800922393799,-0.059448242,0.192382813,1.137573242,4.638671875,8.239746094,-6.896972656,9.71622467,2.010919094,71.4310379,arduino
1.2799713611602783,,,,,,,,,,291860,1.2799713611602783,-0.061279297,0.180541992,1.08996582,4.39453125,4.638671875,-6.652832031,9.728485107,2.178582907,71.37223816,arduino
1.2809479236602783,,,,,,,,,,291870,1.2809479236602783,-0.056640625,0.154785156,1.020507813,3.051757813,1.647949219,-6.591796875,9.670654297,2.28092885,71.30669403,arduino
1.2814152240753174,23.9564208984375,-0.08112990856170654,0.07911919802427292,1.5258790254592896,-1.7611007690429688,28.790481567382812,0,0,0,,,,,,,,,,,,odrive
1.2854084968566895,,,,,,,,,,291880,1.2854084968566895,-0.052124023,0.137817383,0.979736328,4.638671875,3.051757813,-7.141113281,9.610509872,2.368960142,71.23717499,arduino
1.3042891025543213,,,,,,,,,,291890,1.3042891025543213,-0.056884766,0.149414063,0.981445313,9.704589844,6.652832031,-8.239746094,9.622003555,2.527179718,71.16356659,arduino
1.3051466941833496,24.002344131469727,-1.631238341331482,0.2364613562822342,1.2664796113967896,-1.727956771850586,28.791690826416016,0,0,0,,,,,,,,,,,,odrive
1.3076577186584473,,,,,,,,,,291900,1.3076577186584473,-0.051147461,0.167358398,0.96887207,14.70947266,7.995605469,-8.7890625,9.807662964,2.726824045,71.09237671,arduino
1.320509910583496,,,,,,,,,,291910,1.320509910583496,-0.063476563,0.1796875,0.947143555,18.06640625,9.704589844,-8.605957031,10.06067562,2.921640158,71.02806091,arduino
1.3208589553833008,23.9564208984375,-0.2648501992225647,-0.012090988457202911,1.6326905488967896,-1.705789566040039,28.792375564575195,0,0,0,,,,,,,,,,,,odrive
1.3363561630249023,,,,,,,,,,291920,1.3363561630249023,-0.062744141,0.174438477,0.97644043,20.87402344,13.61083984,-7.934570313,10.27764225,3.18339324,70.97470856,arduino
1.34061861038208,,,,,,,,,,291930,1.34061861038208,-0.059082031,0.171630859,1.013916016,24.47509766,15.74707031,-6.469726563,10.40856838,3.36749506,70.93308258,arduino
1.3456568717956543,,,,,,,,,,291940,1.3456568717956543,-0.074462891,0.167602539,1.020263672,25.26855469,15.07568359,-5.310058594,10.56627655,3.590627432,70.90285492,arduino
1.3520169258117676,23.910497665405273,-1.4359487295150757,-0.0948258563876152,1.4495850801467896,-1.6521320343017578,28.79421043395996,0,0,0,,,,,,,,,,,,odrive
1.3601927757263184,23.78803825378418,-0.7868242859840393,-0.07146086543798447,1.7547608613967896,-1.6425495147705078,28.794450759887695,0,0,0,,,,,,,,,,,,odrive
1.3684256076812744,,,,,,,,,,291950,1.3684256076812744,-0.071655273,0.151245117,0.992675781,22.94921875,11.41357422,-4.39453125,10.68466949,3.739379168,70.87381744,arduino
1.382133960723877,,,,,,,,,,291970,1.382133960723877,-0.058349609,0.131835938,0.891479492,21.36230469,9.582519531,-5.126953125,10.78327274,3.841521263,70.83384705,arduino
1.382768154144287,23.910497665405273,-0.026064306497573853,0.023306822404265404,1.602173089981079,-1.5955142974853516,28.795644760131836,0,0,0,,,,,,,,,,,,odrive
1.3974921703338623,,,,,,,,,,291990,1.3974921703338623,-0.081665039,0.189453125,1.06262207,18.06640625,9.765625,-6.652832031,10.8681879,4.016609192,70.78057098,arduino
1.4137773513793945,23.971729278564453,0.5801024436950684,0.04516489803791046,2.273559808731079,-1.535421371459961,28.79713249206543,0,0,0,,,,,,,,,,,,odrive
1.4148521423339844,,,,,,,,,,292010,1.4148521423339844,-0.102539063,0.218261719,1.0234375,10.68115234,1.159667969,-3.90625,11.03963661,4.126375198,70.74919128,arduino
1.4206523895263672,23.895191192626953,0.22719426453113556,0.03656817972660065,2.029419183731079,-1.527425765991211,28.797304153442383,0,0,0,,,,,,,,,,,,odrive
1.4444806575775146,23.94111442565918,-0.7327497601509094,-0.047926418483257294,1.953125238418579,-1.478607177734375,28.79852294921875,0,0,0,,,,,,,,,,,,odrive
1.4447736740112305,,,,,,,,,,292030,1.4447736740112305,-0.087402344,0.219360352,0.958862305,14.28222656,-4.39453125,-0.305175781,11.28155804,4.135541439,70.7449646,arduino
1.4477903842926025,,,,,,,,,,292040,1.4477903842926025,-0.091430664,0.231201172,0.922607422,14.03808594,-5.493164063,1.281738281,11.52304554,4.128568172,70.75405121,arduino
1.4601619243621826,24.01765251159668,-0.7742353677749634,-0.06410017609596252,2.182007074356079,-1.4158439636230469,28.799884796142578,0,0,0,,,,,,,,,,,,odrive
1.4771153926849365,,,,,,,,,,292050,1.4771153926849365,-0.091430664,0.223022461,0.890014648,12.14599609,-5.798339844,3.356933594,11.74168396,4.124037743,70.7822876,arduino
1.4801318645477295,,,,,,,,,,292060,1.4801318645477295,-0.075073242,0.205444336,0.912109375,9.704589844,-4.760742188,4.8828125,11.94222355,4.116927624,70.82775116,arduino
1.4808399677276611,24.002344131469727,-0.48225298523902893,0.3203720450401306,2.197265863418579,-1.4057388305664062,28.800111770629883,0,0,0,,,,,,,,,,,,odrive
1.4811158180236816,,,,,,,,,,292070,1.4811158180236816,-0.077514648,0.210083008,0.904541016,7.141113281,-4.943847656,5.310058594,12.11376286,4.113755703,70.87653351,arduino
1.4854331016540527,,,,,,,,,,292080,1.4854331016540527,-0.086425781,0.197143555,0.880004883,3.479003906,-6.774902344,5.737304688,12.1915884,4.141688824,70.92140961,arduino
1.5059702396392822,23.9564208984375,-0.11124877631664276,-0.03172720968723297,2.380371332168579,-1.343994140625,28.801673889160156,0,0,0,,,,,,,,,,,,odrive
1.5075879096984863,,,,,,,,,,292090,1.5075879096984863,-0.069702148,0.175415039,0.83215332,0.549316406,-8.850097656,5.676269531,12.14613247,4.144476891,70.95443726,arduino
1.511181354522705,,,,,,,,,,292100,1.511181354522705,-0.06237793,0.181518555,0.803100586,0.915527344,-7.385253906,4.211425781,12.26393795,4.097484112,70.98778534,arduino
1.5155305862426758,,,,,,,,,,292110,1.5155305862426758,-0.05847168,0.215454102,0.811401367,0.915527344,-3.601074219,1.892089844,12.38619328,4.053560257,71.00662994,arduino
1.5219614505767822,23.9564208984375,-0.22819359600543976,-0.024341382086277008,2.212524652481079,-1.3067874908447266,28.802669525146484,0,0,0,,,,,,,,,,,,odrive
1.5380897521972656,,,,,,,,,,292120,1.5380897521972656,-0.064086914,0.240722656,0.834350586,0.183105469,-0.427246094,0.48828125,12.50042152,4.053647995,71.01841736,arduino
1.541663408279419,,,,,,,,,,292130,1.541663408279419,-0.041870117,0.167602539,0.867919922,0.48828125,2.807617188,0.549316406,12.42061043,4.007018089,71.02390289,arduino
1.5443120002746582,,,,,,,,,,292140,1.5443120002746582,-0.043823242,0.112915039,0.982543945,1.159667969,7.751464844,-2.685546875,12.32275867,4.061620235,71.00666809,arduino
1.5529088973999023,24.002344131469727,-0.9339134693145752,0.11385980248451233,2.151489496231079,-1.2297592163085938,28.80462074279785,0,0,0,,,,,,,,,,,,odrive
1.5602631568908691,24.002344131469727,-1.2486010789871216,0.05695773661136627,2.365112543106079,-1.2185649871826172,28.80485725402832,0,0,0,,,,,,,,,,,,odrive
1.5666680335998535,,,,,,,,,,292150,1.5666680335998535,-0.072631836,0.189941406,1.063598633,5.432128906,8.178710938,-6.469726563,12.26209831,4.144508839,70.95282745,arduino
1.5686659812927246,,,,,,,,,,292160,1.5686659812927246,-0.084838867,0.155761719,1.010620117,2.563476563,0.427246094,-7.141113281,12.1716547,4.183048725,70.8757019,arduino
1.5829193592071533,,,,,,,,,,292170,1.5829193592071533,-0.084716797,0.135375977,1.001342773,-3.723144531,-4.272460938,-7.934570313,12.01648903,4.173435688,70.78074646,arduino
1.5836045742034912,24.002344131469727,-1.0970139503479004,0.03013661503791809,2.288818597793579,-1.1533470153808594,28.806255340576172,0,0,0,,,,,,,,,,,,odrive
1.5862765312194824,,,,,,,,,,292180,1.5862765312194824,-0.081787109,0.131958008,0.990112305,-2.014160156,-7.934570313,-8.544921875,11.87716293,4.126646042,70.67227936,arduino
1.6145479679107666,,,,,,,,,,292190,1.6145479679107666,-0.086303711,0.131713867,0.979492188,-0.305175781,-10.25390625,-9.582519531,11.75533485,4.068863869,70.54918671,arduino
1.614745855331421,23.910497665405273,-1.2681300640106201,-0.1921456754207611,2.624511957168579,-1.0697917938232422,28.808223724365234,0,0,0,,,,,,,,,,,,odrive
1.6177165508270264,,,,,,,,,,292200,1.6177165508270264,-0.080444336,0.131835938,0.990600586,-1.220703125,-10.68115234,-10.31494141,11.62262917,3.999743462,70.41825867,arduino
1.6197147369384766,,,,,,,,,,292210,1.6197147369384766,-0.110595703,0.263427734,0.967895508,-0.854492188,-11.47460938,-10.49804688,11.69995499,3.969259501,70.29862213,arduino
1.6216709613800049,23.94111442565918,-0.4507051110267639,0.0381573885679245,2.807617425918579,-1.05438232421875,28.808582305908203,0,0,0,,,,,,,,,,,,odrive
1.6449675559997559,,,,,,,,,,292220,1.6449675559997559,-0.093261719,0.252319336,0.872924805,2.44140625,-9.460449219,-7.629394531,11.8209734,3.936722517,70.21161652,arduino
1.6457984447479248,24.002344131469727,-0.7294619083404541,-0.12372815608978271,2.792358636856079,-0.9836769104003906,28.81016731262207,0,0,0,,,,,,,,,,,,odrive
1.6463031768798828,,,,,,,,,,292230,1.6463031768798828,-0.085083008,0.28137207,0.910400391,7.507324219,-2.807617188,-5.493164063,12.00156689,3.944874048,70.15952301,arduino
1.6473302841186523,,,,,,,,,,292240,1.6473302841186523,-0.088623047,0.229736328,0.918334961,5.676269531,0.366210938,-3.41796875,12.14853477,4.01935482,70.13323975,arduino
1.6606478691101074,,,,,,,,,,292250,1.6606478691101074,-0.100341797,0.224365234,0.954467773,6.164550781,1.403808594,-3.784179688,12.2652483,4.138477802,70.10327148,arduino
1.660935878753662,23.9564208984375,-0.3288801610469818,0.18133336305618286,2.822876214981079,-0.9437274932861328,28.810985565185547,0,0,0,,,,,,,,,,,,odrive
1.6659190654754639,,,,,,,,,,292260,1.6659190654754639,-0.108642578,0.226928711,0.963500977,4.638671875,-1.037597656,-5.249023438,12.35534763,4.242346764,70.05315399,arduino
1.6919054985046387,23.94111442565918,-0.5641694068908691,0.15153971314430237,3.112793207168579,-0.8437633514404297,28.81340217590332,0,0,0,,,,,,,,,,,,odrive
1.6934285163879395,,,,,,,,,,292270,1.6934285163879395,-0.115234375,0.259399414,0.973266602,-0.366210938,-5.676269531,-6.164550781,12.43005753,4.275052071,69.98681641,arduino
1.6968085765838623,,,,,,,,,,292280,1.6968085765838623,-0.116943359,0.263671875,0.98046875,-6.896972656,-9.338378906,-3.234863281,12.44154549,4.265072823,69.94127655,arduino
1.700666904449463,23.9564208984375,-0.41725245118141174,-0.04442232847213745,3.143310785293579,-0.8270893096923828,28.81377410888672,0,0,0,,,,,,,,,,,,odrive
1.7223773002624512,23.987035751342773,-0.08558569848537445,0.09621509909629822,3.372192621231079,-0.7497673034667969,28.815670013427734,0,0,0,,,,,,,,,,,,odrive
1.723036527633667,,,,,,,,,,292300,1.723036527633667,-0.122436523,0.2421875,0.967529297,-12.32910156,-14.46533203,-1.403808594,12.37213326,4.224322796,69.9005661,arduino
1.726353406906128,,,,,,,,,,292320,1.726353406906128,-0.119873047,0.161865234,0.933227539,-3.967285156,-15.80810547,1.098632813,12.25713921,4.154983521,69.87201691,arduino
1.7534561157226562,23.987035751342773,-0.5949307680130005,0.0769115760922432,3.509521722793579,-0.5973052978515625,28.819252014160156,0,0,0,,,,,,,,,,,,odrive
1.7548608779907227,,,,,,,,,,292340,1.7548608779907227,-0.122070313,0.108520508,0.958374023,1.037597656,-14.52636719,0.305175781,12.16544533,4.06584549,69.83690643,arduino
1.7581167221069336,,,,,,,,,,292350,1.7581167221069336,-0.130371094,0.095458984,0.969360352,3.234863281,-15.13671875,-1.159667969,12.09539795,3.975145817,69.78656006,arduino
1.7764086723327637,23.9564208984375,-0.6667588949203491,0.13927601277828217,3.128051996231079,-0.5807075500488281,28.819608688354492,0,0,0,,,,,,,,,,,,odrive
1.7809698581695557,23.910497665405273,-0.9564924836158752,0.03911684453487396,3.265381097793579,-0.5681056976318359,28.819904327392578,0,0,0,,,,,,,,,,,,odrive
1.7863304615020752,,,,,,,,,,292360,1.7863304615020752,-0.137084961,0.114379883,0.962646484,6.042480469,-16.90673828,-3.112792969,12.06130123,3.886091232,69.71433258,arduino
1.7888355255126953,,,,,,,,,,292370,1.7888355255126953,-0.144165039,0.118652344,0.960205078,8.117675781,-17.51708984,-3.41796875,12.05408955,3.799399853,69.63845062,arduino
1.7938435077667236,,,,,,,,,,292380,1.7938435077667236,-0.134521484,0.108276367,0.9609375,8.7890625,-16.96777344,-2.502441406,12.04665565,3.706458569,69.57237244,arduino
1.7961721420288086,,,,,,,,,,292390,1.7961721420288086,-0.127197266,0.116699219,0.95324707,9.338378906,-16.23535156,-2.380371094,12.04602528,3.621832609,69.50925446,arduino
1.8009154796600342,23.910497665405273,-0.6790983080863953,0.17251698672771454,3.417968988418579,-0.49056053161621094,28.82192039489746,0,0,0,,,,,,,,,,,,odrive
1.8172907829284668,,,,,,,,,,292400,1.8172907829284668,-0.141357422,0.115112305,0.960449219,9.887695313,-14.77050781,-2.197265625,12.05737591,3.558732748,69.45148468,arduino
1.8212904930114746,,,,,,,,,,292410,1.8212904930114746,-0.135986328,0.108276367,0.938598633,10.37597656,-14.40429688,-1.770019531,12.07169247,3.49563098,69.39862061,arduino
1.8247928619384766,,,,,,,,,,292420,1.8247928619384766,-0.114135742,0.092407227,0.939208984,11.29150391,-13.91601563,-1.098632813,12.08222008,3.415239573,69.35256958,arduino
1.8316576480865479,23.925806045532227,-0.05672672390937805,0.023240627720952034,3.570556879043579,-0.37789344787597656,28.82460594177246,0,0,0,,,,,,,,,,,,odrive
1.840074062347412,24.002344131469727,-0.5065403580665588,-0.07243750989437103,3.417968988418579,-0.3618316650390625,28.82495880126953,0,0,0,,,,,,,,,,,,odrive
1.8486218452453613,,,,,,,,,,292430,1.8486218452453613,-0.107788086,0.118774414,0.942382813,12.57324219,-12.6953125,-1.46484375,12.10950565,3.354699373,69.30587769,arduino
1.8516054153442383,,,,,,,,,,292440,1.8516054153442383,-0.104125977,0.143676758,0.938354492,12.57324219,-13.671875,-1.831054688,12.14616776,3.299052954,69.25411987,arduino
1.8559365272521973,,,,,,,,,,292450,1.8559365272521973,-0.099609375,0.148803711,0.919921875,11.29150391,-16.23535156,-1.831054688,12.17362022,3.222794771,69.19720459,arduino
1.8623509407043457,23.895191192626953,-0.7959192991256714,0.028614595532417297,3.494262933731079,-0.2756767272949219,28.826875686645508,0,0,0,,,,,,,,,,,,odrive
1.8807587623596191,,,,,,,,,,292460,1.8807587623596191,-0.089477539,0.141235352,0.931030273,10.07080078,-17.63916016,-1.159667969,12.17546082,3.112949133,69.14318848,arduino
1.883775234222412,,,,,,,,,,292470,1.883775234222412,-0.084594727,0.140869141,0.936401367,8.544921875,-16.05224609,-1.46484375,12.1592207,3.013973713,69.08956146,arduino
1.8847782611846924,,,,,,,,,,292480,1.8847782611846924,-0.089233398,0.146606445,0.936279297,7.263183594,-11.84082031,-1.892089844,12.13781929,2.969123602,69.04124451,arduino
1.8939599990844727,23.9564208984375,0.2092467099428177,-0.058558184653520584,3.326416254043579,-0.1647968292236328,28.82945442199707,0,0,0,,,,,,,,,,,,odrive
1.9018306732177734,23.925806045532227,-0.8348836898803711,0.09907553344964981,2.990722894668579,-0.1480255126953125,28.829883575439453,0,0,0,,,,,,,,,,,,odrive
1.9089117050170898,,,,,,,,,,292490,1.9089117050170898,-0.079956055,0.151977539,0.936767578,7.080078125,-8.117675781,-1.708984375,12.11111355,2.954122305,69.00247192,arduino
1.9099531173706055,,,,,,,,,,292500,1.9099531173706055,-0.075195313,0.165283203,0.935546875,8.056640625,-6.896972656,-2.136230469,12.09911156,2.95953989,68.96238708,arduino
1.92482328414917,24.002344131469727,-0.9488021731376648,-0.10633356869220734,3.036499261856079,-0.06964683532714844,28.83168601989746,0,0,0,,,,,,,,,,,,odrive
1.9261019229888916,,,,,,,,,,292510,1.9261019229888916,-0.072265625,0.182617188,0.938964844,10.55908203,-5.126953125,-1.708984375,12.13185596,3.002075911,68.93119812,arduino
1.9291019439697266,,,,,,,,,,292520,1.9291019439697266,-0.079833984,0.206542969,0.947631836,13.18359375,-3.662109375,-1.159667969,12.27359867,3.082510948,68.91281128,arduino
1.95609450340271,23.94111442565918,-0.4254429340362549,-0.09924120455980301,3.128051996231079,0.02990150637924671,28.834054946899414,0,0,0,,,,,,,,,,,,odrive
1.9564006328582764,,,,,,,,,,292530,1.9564006328582764,-0.090087891,0.227661133,0.947021484,14.28222656,-3.662109375,1.098632813,12.47218895,3.143157244,68.91885376,arduino
1.9599149227142334,,,,,,,,,,292540,1.9599149227142334,-0.047729492,0.213012695,0.951171875,14.70947266,-3.784179688,5.920410156,12.66838551,2.988656759,68.97084045,arduino
1.9619152545928955,,,,,,,,,,292550,1.9619152545928955,-0.055419922,0.212646484,0.943603516,16.05224609,-3.967285156,5.554199219,12.84357452,3.051312685,69.01712799,arduino
1.964095115661621,23.925806045532227,-0.19622167944908142,0.047869011759757996,3.082275629043579,0.04857826605439186,28.834487915039062,0,0,0,,,,,,,,,,,,odrive
1.965416431427002,,,,,,,,,,292560,1.965416431427002,-0.046020508,0.20300293,0.933105469,17.27294922,-4.8828125,6.591796875,12.91943932,2.937915087,69.06523895,arduino
1.9872310161590576,23.9564208984375,0.3265129625797272,0.03256746381521225,3.021240472793579,0.11965752393007278,28.836360931396484,0,0,0,,,,,,,,,,,,odrive
1.9875500202178955,,,,,,,,,,292570,1.9875500202178955,-0.034057617,0.190917969,0.923217773,17.94433594,-6.286621094,8.361816406,13.0104599,2.79338336,69.12795258,arduino
1.9885804653167725,,,,,,,,,,292580,1.9885804653167725,-0.023925781,0.178955078,0.918457031,17.76123047,-8.483886719,8.728027344,13.09796238,2.62869525,69.1893158,arduino
2.0023603439331055,23.9564208984375,-0.19658328592777252,0.05114731565117836,2.914428949356079,0.15944673120975494,28.837390899658203,0,0,0,,,,,,,,,,,,odrive
2.005070209503174,,,,,,,,,,292590,2.005070209503174,-0.032836914,0.182250977,0.919311523,17.39501953,-9.826660156,8.239746094,13.1683321,2.479292393,69.24239349,arduino
2.007070302963257,,,,,,,,,,292600,2.007070302963257,-0.048583984,0.194458008,0.926879883,17.63916016,-10.49804688,7.568359375,13.24065495,2.396666527,69.2875824,arduino
2.033277750015259,24.01765251159668,-0.20122310519218445,0.1739065796136856,2.960205316543579,0.25374606251716614,28.840131759643555,0,0,0,,,,,,,,,,,,odrive
2.0355286598205566,,,,,,,,,,292620,2.0355286598205566,-0.053344727,0.199951172,0.944335938,17.94433594,-5.798339844,7.202148438,13.32552338,2.381582499,69.34041595,arduino
2.0411477088928223,23.925806045532227,-0.17020222544670105,-0.05033951997756958,2.502441644668579,0.26661303639411926,28.84051513671875,0,0,0,,,,,,,,,,,,odrive
2.049689292907715,,,,,,,,,,292640,2.049689292907715,-0.061767578,0.225097656,0.960327148,17.76123047,0.732421875,8.239746094,13.49395752,2.483476639,69.42195892,arduino
2.0645573139190674,23.9564208984375,0.08471930027008057,0.012353243306279182,2.609253168106079,0.3357868492603302,28.842498779296875,0,0,0,,,,,,,,,,,,odrive
2.0667505264282227,,,,,,,,,,292660,2.0667505264282227,-0.027832031,0.225952148,0.926879883,15.44189453,-0.9765625,10.13183594,13.68061924,2.339125872,69.51927948,arduino
2.080237627029419,23.9564208984375,-0.43836110830307007,0.3195412755012512,2.685547113418579,0.36945345997810364,28.84351348876953,0,0,0,,,,,,,,,,,,odrive
2.0974481105804443,,,,,,,,,,292680,2.0974481105804443,-0.031005859,0.253051758,0.920288086,11.77978516,-3.234863281,8.911132813,13.90940952,2.256070614,69.60248566,arduino
2.1014480590820312,,,,,,,,,,292690,2.1014480590820312,-0.044677734,0.258666992,0.927490234,9.521484375,-4.150390625,8.911132813,14.11593342,2.220233917,69.68325806,arduino
2.105454444885254,,,,,,,,,,292700,2.105454444885254,-0.038818359,0.250976563,0.948242188,9.521484375,-5.859375,9.826660156,14.32530975,2.146549225,69.76847076,arduino
2.11224102973938,23.9564208984375,-0.23467083275318146,-0.04886557161808014,2.593994379043579,0.4562435448169708,28.845905303955078,0,0,0,,,,,,,,,,,,odrive
2.1209442615509033,23.9564208984375,0.589011549949646,0.09653686732053757,2.685547113418579,0.4703865349292755,28.84621810913086,0,0,0,,,,,,,,,,,,odrive
2.1287457942962646,,,,,,,,,,292710,2.1287457942962646,-0.049438477,0.239013672,0.959472656,11.59667969,-7.32421875,11.10839844,14.3959589,2.151466608,69.85623932,arduino
2.1297454833984375,,,,,,,,,,292720,2.1297454833984375,-0.044921875,0.235717773,0.961303711,14.28222656,-8.605957031,13.30566406,14.45137119,2.101100206,69.96033478,arduino
2.143416166305542,24.002344131469727,-0.42314818501472473,0.0005023693665862083,2.456665277481079,0.5260182023048401,28.847713470458984,0,0,0,,,,,,,,,,,,odrive
2.1462438106536865,,,,,,,,,,292730,2.1462438106536865,-0.033447266,0.242919922,0.958007813,16.23535156,-11.35253906,15.01464844,14.52744675,1.887577891,70.0740509,arduino
2.151242971420288,,,,,,,,,,292740,2.151242971420288,-0.038085938,0.270507813,0.967407227,17.51708984,-14.16015625,16.11328125,14.81398869,1.737753391,70.19772339,arduino
2.155848264694214,,,,,,,,,,292750,2.155848264694214,-0.025146484,0.298950195,0.967041016,20.20263672,-16.54052734,19.04296875,15.13022137,1.514205098,70.34227753,arduino
2.174492835998535,23.925806045532227,-0.18400995433330536,-0.14302431046962738,2.227783441543579,0.5961762070655823,28.849668502807617,0,0,0,,,,,,,,,,,,odrive
2.1753721237182617,,,,,,,,,,292760,2.1753721237182617,-0.019897461,0.305297852,0.959106445,23.49853516,-19.40917969,22.64404297,15.47902775,1.250751019,70.51230621,arduino
2.1783735752105713,,,,,,,,,,292770,2.1783735752105713,0.003540039,0.292114258,0.943603516,26.3671875,-22.09472656,25.93994141,15.83218193,0.895386696,70.70411682,arduino
2.1802399158477783,23.925806045532227,0.1306459903717041,0.07221142947673798,2.349853754043579,0.605039656162262,28.84990119934082,0,0,0,,,,,,,,,,,,odrive
2.2056870460510254,23.925806045532227,0.0013260319828987122,0.0898134633898735,1.998901605606079,0.6626740097999573,28.852033615112305,0,0,0,,,,,,,,,,,,odrive
2.2061362266540527,,,,,,,,,,292780,2.2061362266540527,0.014282227,0.271118164,0.9296875,28.19824219,-23.25439453,27.89306641,16.14379692,0.483863205,70.90834045,arduino
2.209136962890625,,,,,,,,,,292790,2.209136962890625,0.014648438,0.257324219,0.932128906,29.11376953,-21.17919922,28.50341797,16.3832016,0.100198075,71.12203979,arduino
2.2132108211517334,,,,,,,,,,292800,2.2132108211517334,0.013061523,0.278076172,0.934326172,29.05273438,-17.94433594,27.95410156,16.6979847,-0.263099819,71.33863831,arduino
2.216224431991577,,,,,,,,,,292810,2.216224431991577,0.012084961,0.30847168,0.925292969,27.58789063,-13.18359375,26.79443359,17.07922935,-0.494499028,71.55608368,arduino
2.22165584564209,23.94111442565918,-0.38344714045524597,0.036098357290029526,1.815796136856079,0.691648542881012,28.853126525878906,0,0,0,,,,,,,,,,,,odrive
2.2376017570495605,,,,,,,,,,292820,2.2376017570495605,0.004272461,0.338378906,0.924316406,24.78027344,-7.080078125,24.78027344,17.43449974,-0.626702011,71.77075195,arduino
2.2406952381134033,,,,,,,,,,292830,2.2406952381134033,0.002197266,0.362182617,0.91394043,21.72851563,-2.44140625,22.88818359,17.75839424,-0.706162095,71.98034668,arduino
2.245828628540039,,,,,,,,,,292840,2.245828628540039,-0.001586914,0.407836914,0.902587891,20.5078125,-0.366210938,21.85058594,18.0697403,-0.763620734,72.18577576,arduino
2.2523794174194336,24.002344131469727,0.562422513961792,0.011901563964784145,1.998901605606079,0.7549992203712463,28.85551643371582,0,0,0,,,,,,,,,,,,odrive
2.260749101638794,24.002344131469727,-1.3393934965133667,0.008895015344023705,1.403808832168579,0.7644806504249573,28.85601234436035,0,0,0,,,,,,,,,,,,odrive
2.26890230178833,,,,,,,,,,292850,2.26890230178833,0.009033203,0.431884766,0.907348633,20.01953125,0.427246094,22.4609375,18.37637901,-0.826175034,72.39896393,arduino
2.2699174880981445,,,,,,,,,,292860,2.2699174880981445,0.020507813,0.403320313,0.894775391,19.16503906,-0.244140625,23.98681641,18.67365456,-0.911639869,72.62399292,arduino
2.2835519313812256,23.94111442565918,0.14204727113246918,0.057788651436567307,1.937866449356079,0.8099575638771057,28.857938766479492,0,0,0,,,,,,,,,,,,odrive
2.2862555980682373,,,,,,,,,,292870,2.2862555980682373,0.040893555,0.346801758,0.892578125,20.14160156,-0.671386719,26.06201172,18.96538544,-1.058801055,72.86685181,arduino
2.2887611389160156,,,,,,,,,,292880,2.2887611389160156,0.045532227,0.311889648,0.895141602,21.42333984,-0.793457031,26.3671875,19.19093513,-1.265661836,73.11296082,arduino
2.3144032955169678,24.002344131469727,-0.5263808369636536,-0.06036171317100525,1.632690668106079,0.8591118454933167,28.860004425048828,0,0,0,,,,,,,,,,,,odrive
2.3163368701934814,,,,,,,,,,292890,2.3163368701934814,0.039550781,0.312744141,0.892211914,21.60644531,0.183105469,24.78027344,19.41408348,-1.459538817,73.34700012,arduino
2.3193519115448,,,,,,,,,,292900,2.3193519115448,0.044433594,0.324829102,0.902099609,21.36230469,0.610351563,22.64404297,19.65706444,-1.637606263,73.56134033,arduino
2.321699380874634,23.94111442565918,-0.12848018109798431,0.027742430567741394,1.632690668106079,0.8685227036476135,28.860347747802734,0,0,0,,,,,,,,,,,,odrive
2.322335720062256,,,,,,,,,,292910,2.322335720062256,0.044433594,0.326538086,0.911132813,20.38574219,-1.098632813,20.01953125,19.8622303,-1.82987535,73.74572754,arduino
2.3256638050079346,,,,,,,,,,292920,2.3256638050079346,0.032348633,0.328979492,0.911376953,17.578125,-4.516601563,17.33398438,20.0135746,-2.044331074,73.89382935,arduino
2.3456826210021973,23.925806045532227,-1.260807991027832,-0.05543629825115204,1.159668207168579,0.908353865146637,28.861913681030273,0,0,0,,,,,,,,,,,,odrive
2.3462021350860596,,,,,,,,,,292930,2.3462021350860596,0.031616211,0.348632813,0.911621094,14.70947266,-7.568359375,14.6484375,20.26322746,-2.143769979,74.00157928,arduino
2.3613333702087402,24.002344131469727,-0.5494476556777954,-0.1408405750989914,1.495361566543579,0.9277668595314026,28.862957000732422,0,0,0,,,,,,,,,,,,odrive
2.363067388534546,,,,,,,,,,292950,2.363067388534546,0.039794922,0.375732422,0.905883789,5.432128906,-13.671875,12.26806641,20.42286682,-2.323207378,74.06504059,arduino
2.37739896774292,,,,,,,,,,292970,2.37739896774292,0.06237793,0.45324707,0.955078125,2.44140625,-15.99121094,13.00048828,20.5504055,-2.541148663,74.12657928,arduino
2.392874002456665,23.910497665405273,-0.2666994333267212,0.03733108937740326,1.129150629043579,0.9755573868751526,28.865455627441406,0,0,0,,,,,,,,,,,,odrive
2.394984245300293,,,,,,,,,,292990,2.394984245300293,0.041259766,0.419555664,0.942749023,1.770019531,-21.17919922,15.74707031,20.67283058,-2.786966562,74.19469452,arduino
2.4007530212402344,23.910497665405273,-1.2493375539779663,0.0015951693058013916,0.9765627384185791,0.9806938767433167,28.865846633911133,0,0,0,,,,,,,,,,,,odrive
2.42358136177063,,,,,,,,,,293000,2.42358136177063,0.052368164,0.385131836,0.95324707,-1.342773438,-21.66748047,15.13671875,20.7636776,-3.053603411,74.25443268,arduino
2.424558162689209,23.9564208984375,-0.5242711305618286,0.05224287509918213,1.098633050918579,1.011770248413086,28.868024826049805,0,0,0,,,,,,,,,,,,odrive
2.426736831665039,,,,,,,,,,293010,2.426736831665039,0.071655273,0.36328125,0.950561523,-4.943847656,-20.75195313,13.30566406,20.72891426,-3.407391071,74.30452728,arduino
2.429729461669922,,,,,,,,,,293020,2.429729461669922,0.073974609,0.354614258,0.937988281,-8.30078125,-17.02880859,10.80322266,20.64062119,-3.719278812,74.34577942,arduino
2.4348583221435547,,,,,,,,,,293030,2.4348583221435547,0.055786133,0.388549805,0.946777344,-12.32910156,-11.77978516,7.873535156,20.6184864,-3.820354462,74.37130737,arduino
2.4401838779449463,23.9564208984375,0.42967522144317627,-0.002341523766517639,1.464843988418579,1.0296249389648438,28.869178771972656,0,0,0,,,,,,,,,,,,odrive
2.455291271209717,,,,,,,,,,293040,2.455291271209717,0.071655273,0.396484375,0.972900391,-15.44189453,-7.141113281,6.286621094,20.56991196,-3.915051222,74.39791107,arduino
2.4587926864624023,,,,,,,,,,293050,2.4587926864624023,0.072875977,0.393188477,0.99597168,-14.46533203,-3.356933594,7.385253906,20.52973557,-3.970054388,74.44798279,arduino
2.4705557823181152,23.910497665405273,-0.6609269380569458,-0.027843564748764038,1.007080316543579,1.0607585906982422,28.87148666381836,0,0,0,,,,,,,,,,,,odrive
2.4858882427215576,24.063573837280273,-0.2383280247449875,0.2133069932460785,0.9613039493560791,1.0757064819335938,28.87261390686035,0,0,0,,,,,,,,,,,,odrive
2.486436128616333,,,,,,,,,,293060,2.486436128616333,0.076416016,0.390014648,0.989013672,-14.28222656,-2.502441406,8.422851563,20.48914909,-4.038297176,74.510849,arduino
2.488990068435669,,,,,,,,,,293070,2.488990068435669,0.031738281,0.411132813,1.014160156,-16.47949219,-3.356933594,11.77978516,20.38039207,-4.016317368,74.60522461,arduino
2.4925520420074463,,,,,,,,,,293080,2.4925520420074463,0.067260742,0.452636719,1.073974609,-16.66259766,-8.728027344,18.79882813,20.30870056,-4.133280277,74.74407959,arduino
2.4966299533843994,,,,,,,,,,293090,2.4966299533843994,0.128417969,0.519897461,1.084106445,-13.24462891,-12.81738281,28.01513672,20.2616806,-4.388623238,74.95562744,arduino
2.501053810119629,24.048267364501953,-0.14450296759605408,0.20164990425109863,0.9155275821685791,1.0894012451171875,28.87371063232422,0,0,0,,,,,,,,,,,,odrive
2.517667531967163,,,,,,,,,,293100,2.517667531967163,0.244140625,0.615234375,1.035888672,-15.19775391,-13.12255859,37.17041016,20.17537498,-4.702719212,75.25312805,arduino
2.520684003829956,,,,,,,,,,293110,2.520684003829956,0.19921875,0.540405273,1.005371094,-18.00537109,-25.63476563,38.26904297,20.06331825,-5.134951591,75.51776886,arduino
2.5316202640533447,23.9564208984375,-0.8936287760734558,-0.03981500491499901,0.5340578556060791,1.115579605102539,28.87579345703125,0,0,0,,,,,,,,,,,,odrive
2.5402190685272217,23.895191192626953,-1.1611485481262207,0.009914308786392212,0.4577639102935791,1.1183643341064453,28.876245498657227,0,0,0,,,,,,,,,,,,odrive
2.5482795238494873,,,,,,,,,,293120,2.5482795238494873,0.170288086,0.441894531,0.954345703,-18.18847656,-44.31152344,35.09521484,19.94764519,-5.742773533,75.68934631,arduino
2.549278736114502,,,,,,,,,,293130,2.549278736114502,0.174560547,0.347290039,0.963745117,-19.65332031,-42.23632813,35.27832031,19.72732735,-6.373888016,75.87950897,arduino
2.5502781867980957,,,,,,,,,,293140,2.5502781867980957,0.232421875,0.322875977,0.934326172,-18.12744141,-36.25488281,35.52246094,19.51036263,-6.948426247,76.0952301,arduino
2.562507390975952,,,,,,,,,,293150,2.562507390975952,0.241455078,0.342529297,0.959838867,-14.95361328,-29.90722656,28.50341797,19.34171867,-7.439002514,76.26577759,arduino
2.56343150138855,23.971729278564453,-0.37382662296295166,-0.09635583311319351,0.7476809024810791,1.1315059661865234,28.87803077697754,0,0,0,,,,,,,,,,,,odrive
2.5667402744293213,,,,,,,,,,293160,2.5667402744293213,0.160522461,0.329956055,1.020263672,-10.25390625,-19.65332031,22.39990234,19.12940407,-7.766911507,76.42564392,arduino
2.5942187309265137,23.94111442565918,-0.5186851620674133,0.027429834008216858,0.4272463321685791,1.1510066986083984,28.880290985107422,0,0,0,,,,,,,,,,,,odrive
2.6010072231292725,23.9564208984375,-0.33392128348350525,-0.01762988418340683,0.5187990665435791,1.153909683227539,28.88069725036621,0,0,0,,,,,,,,,,,,odrive
2.6258270740509033,23.925806045532227,0.6708003282546997,0.027015365660190582,0.6256105899810791,1.1686725616455078,28.882610321044922,0,0,0,,,,,,,,,,,,odrive
2.641216516494751,23.925806045532227,0.09026243537664413,-0.006485108286142349,0.2899172306060791,1.1744117736816406,28.88334846496582,0,0,0,,,,,,,,,,,,odrive
2.6719906330108643,23.987035751342773,-0.7491552829742432,0.007769882678985596,0.0457766056060791,1.1789264678955078,28.884559631347656,0,0,0,,,,,,,,,,,,odrive
