timestamp,voltage,current_q,current_d,velocity,position,temperature,axis_error,motor_error,encoder_error,ts,ax,ay,az,gx,gy,gz,roll,pitch,yaw,source
70.695,,,,,,,,,,70695,0.192382813,0.264648438,0.93371582,-0.366210938,-3.356933594,-0.305175781,15.77803898,-11.25995159,90.46168518,arduino
70.705,,,,,,,,,,70705,0.189697266,0.267822266,0.931396484,-0.244140625,-3.479003906,-0.427246094,15.87284279,-11.22617722,90.4294281,arduino
70.715,,,,,,,,,,70715,0.188476563,0.265991211,0.932495117,0.122070313,-3.662109375,-0.610351563,15.90066719,-11.14841366,90.40868378,arduino
70.725,,,,,,,,,,70725,0.189331055,0.267578125,0.934936523,-0.549316406,-4.211425781,-0.48828125,15.9527216,-11.08623314,90.3816452,arduino
70.735,,,,,,,,,,70735,0.18762207,0.263061523,0.935302734,-1.708984375,-4.638671875,-0.122070313,15.84556293,-11.07096767,90.38527679,arduino
70.745,,,,,,,,,,70745,0.189697266,0.266235352,0.938232422,-1.281738281,-4.821777344,-0.122070313,15.8292284,-11.00480652,90.37187195,arduino
70.755,,,,,,,,,,70755,0.190673828,0.268432617,0.937866211,-0.854492188,-4.943847656,-0.244140625,15.92733002,-11.09132576,90.33589935,arduino
70.765,,,,,,,,,,70765,0.191162109,0.262817383,0.938110352,-1.098632813,-4.8828125,-0.366210938,15.80688858,-11.14145851,90.3404007,arduino
70.775,,,,,,,,,,70775,0.190673828,0.257080078,0.942749023,-0.9765625,-4.8828125,-0.549316406,15.69076157,-11.1671524,90.34275055,arduino
70.785,,,,,,,,,,70785,0.192871094,0.256591797,0.945556641,-0.671386719,-4.8828125,-0.610351563,15.57554436,-11.20588017,90.34507751,arduino
70.795,,,,,,,,,,70795,0.197875977,0.256347656,0.945922852,-0.915527344,-5.37109375,-0.48828125,15.46758842,-11.30839729,90.34559631,arduino
70.805,,,,,,,,,,70805,0.19934082,0.25769043,0.947509766,-0.793457031,-5.187988281,-0.366210938,15.36686897,-11.42110825,90.34686279,arduino
70.815,,,,,,,,,,70815,0.200561523,0.253295898,0.94140625,-0.854492188,-4.638671875,-0.48828125,15.26557159,-11.52846146,90.3486557,arduino
70.825,,,,,,,,,,70825,0.197998047,0.25793457,0.939575195,-0.305175781,-4.028320313,-0.427246094,15.36903381,-11.51563835,90.31295776,arduino
70.835,,,,,,,,,,70835,0.196044922,0.262817383,0.934570313,0.732421875,-3.662109375,-0.427246094,15.48906422,-11.51763821,90.27690887,arduino
70.845,,,,,,,,,,70845,0.197631836,0.264526367,0.925415039,1.037597656,-3.723144531,-0.854492188,15.61324215,-11.57169914,90.23630524,arduino
70.855,,,,,,,,,,70855,0.195800781,0.262207031,0.926269531,0.793457031,-3.967285156,-1.037597656,15.73240566,-11.56546116,90.19376373,arduino
70.865,,,,,,,,,,70865,0.195678711,0.255615234,0.932983398,0.854492188,-4.699707031,-0.854492188,15.63909817,-11.57488823,90.19364929,arduino
70.875,,,,,,,,,,70875,0.192016602,0.256835938,0.941162109,0.9765625,-5.676269531,-0.549316406,15.58159447,-11.54440689,90.18695831,arduino
70.885,,,,,,,,,,70885,0.196044922,0.255004883,0.941040039,1.037597656,-6.164550781,-0.9765625,15.4948225,-11.55850315,90.18096161,arduino
70.895,,,,,,,,,,70895,0.194946289,0.255859375,0.941162109,2.502441406,-5.432128906,-1.525878906,15.44355488,-11.53353596,90.16761017,arduino
70.905,,,,,,,,,,70905,0.195068359,0.259643555,0.94140625,3.41796875,-4.516601563,-1.647949219,15.47190857,-11.46128178,90.14144897,arduino
70.915,,,,,,,,,,70915,0.197875977,0.259521484,0.942260742,3.540039063,-4.211425781,-1.708984375,15.40358639,-11.47375107,90.13490295,arduino
70.925,,,,,,,,,,70925,0.200317383,0.260498047,0.942016602,3.723144531,-4.272460938,-1.831054688,15.49601936,-11.60895157,90.09539032,arduino
70.935,,,,,,,,,,70935,0.202392578,0.267211914,0.940063477,3.356933594,-4.272460938,-1.770019531,15.64392853,-11.67200756,90.04441071,arduino
70.945,,,,,,,,,,70945,0.204345703,0.268310547,0.936889648,2.258300781,-4.333496094,-1.831054688,15.77132893,-11.75870609,89.99441528,arduino
70.965,,,,,,,,,,70965,0.201049805,0.262451172,0.932006836,1.403808594,-3.723144531,-2.44140625,15.69956207,-11.72827721,89.97895813,arduino
70.985,,,,,,,,,,70985,0.197021484,0.255493164,0.931640625,2.563476563,-4.455566406,-2.685546875,15.63627338,-11.7105341,89.9598999,arduino
71.005,,,,,,,,,,71005,0.200195313,0.252685547,0.944702148,1.770019531,-6.225585938,-2.563476563,15.55314159,-11.74041939,89.93978119,arduino
71.015,,,,,,,,,,71015,0.197998047,0.256591797,0.957275391,1.831054688,-6.286621094,-2.502441406,15.49415112,-11.72521019,89.91536713,arduino
71.025,,,,,,,,,,71025,0.199829102,0.271728516,0.898193359,2.014160156,-5.737304688,-2.746582031,15.63216019,-11.79751587,89.85042572,arduino
71.035,,,,,,,,,,71035,0.189208984,0.232055664,0.959350586,-1.037597656,-3.41796875,-2.319335938,15.52768612,-11.77789402,89.83876038,arduino
71.045,,,,,,,,,,71045,0.203491211,0.254394531,0.960571289,2.685546875,-5.676269531,-3.112792969,15.45694065,-11.79287815,89.8144455,arduino
71.055,,,,,,,,,,71055,0.200439453,0.278564453,0.931152344,8.972167969,-7.995605469,-2.868652344,15.66991711,-11.84916782,89.7412262,arduino
71.065,,,,,,,,,,71065,0.197631836,0.265869141,0.948730469,3.601074219,-6.042480469,-2.9296875,15.71190262,-11.78721333,89.69644165,arduino
71.075,,,,,,,,,,71075,0.204101563,0.259399414,0.948852539,-0.244140625,-5.310058594,-2.807617188,15.6072588,-11.81369114,89.67679596,arduino
71.085,,,,,,,,,,71085,0.194458008,0.261474609,0.94543457,1.770019531,-4.8828125,-2.075195313,15.6052866,-11.74717808,89.64838409,arduino
71.095,,,,,,,,,,71095,0.192016602,0.259399414,0.943481445,3.540039063,-4.089355469,-3.356933594,15.6120472,-11.67334175,89.61178589,arduino
71.105,,,,,,,,,,71105,0.193115234,0.259033203,0.93359375,4.821777344,-4.577636719,-3.479003906,15.64151382,-11.60051346,89.57071686,arduino
71.115,,,,,,,,,,71115,0.19128418,0.263793945,0.936767578,3.784179688,-5.493164063,-2.44140625,15.70715237,-11.535079,89.52762604,arduino
71.125,,,,,,,,,,71125,0.196533203,0.267822266,0.941772461,1.220703125,-6.34765625,-1.892089844,15.80414581,-11.50537014,89.47602081,arduino
71.135,,,,,,,,,,71135,0.190307617,0.262573242,0.935058594,0.305175781,-6.713867188,-1.46484375,15.78339958,-11.45909405,89.4489975,arduino
71.145,,,,,,,,,,71145,0.202270508,0.270996094,0.950317383,0.122070313,-6.8359375,-1.281738281,15.87610245,-11.59106636,89.40042877,arduino
71.155,,,,,,,,,,71155,0.204956055,0.268920898,0.947265625,0.549316406,-7.690429688,-1.281738281,15.87016487,-11.77344227,89.37004852,arduino
71.165,,,,,,,,,,71165,0.209838867,0.271240234,0.952514648,1.037597656,-7.507324219,-1.342773438,15.90207577,-11.95271873,89.33286285,arduino
71.175,,,,,,,,,,71175,0.194580078,0.157836914,0.996582031,0.854492188,-6.103515625,-0.793457031,15.80472469,-11.99394512,89.33102417,arduino
71.185,,,,,,,,,,71185,0.164672852,0.181030273,1.045043945,6.652832031,-1.525878906,6.042480469,15.76156712,-11.97448158,89.40662384,arduino
71.195,,,,,,,,,,71195,0.15612793,0.207641602,1.010742188,14.16015625,5.920410156,8.850097656,15.79576206,-11.87306786,89.52802277,arduino
71.205,,,,,,,,,,71205,0.145263672,0.246704102,0.936401367,6.042480469,9.216308594,7.141113281,15.80346107,-11.69804859,89.63071442,arduino
71.215,,,,,,,,,,71215,0.168334961,0.272338867,0.873535156,-13.00048828,2.380371094,10.92529297,15.7391367,-11.63067818,89.72663116,arduino
71.225,,,,,,,,,,71225,0.19543457,0.288818359,0.853515625,-24.04785156,-7.263183594,13.18359375,15.58591652,-11.7592783,89.81417847,arduino
71.235,,,,,,,,,,71235,0.217895508,0.284667969,0.874023438,-21.30126953,-14.09912109,10.98632813,15.45119572,-11.98467922,89.8649826,arduino
71.245,,,,,,,,,,71245,0.257080078,0.302856445,0.884155273,-11.84082031,-17.51708984,6.713867188,15.40670204,-12.24927998,89.86739349,arduino
71.255,,,,,,,,,,71255,0.270996094,0.330200195,0.95715332,-4.39453125,-17.578125,3.662109375,15.45271206,-12.49564552,89.83707428,arduino
71.265,,,,,,,,,,71265,0.291625977,0.307983398,1.004272461,-1.586914063,-18.79882813,-0.244140625,15.4995451,-12.77377033,89.7722168,arduino
71.285,,,,,,,,,,71285,0.299560547,0.290893555,1.050537109,12.63427734,-1.525878906,-9.460449219,15.64661789,-12.87520123,89.67463684,arduino
71.305,,,,,,,,,,71305,0.292480469,0.326538086,0.915161133,1.953125,8.972167969,-21.24023438,15.78502464,-12.80888844,89.47247314,arduino
71.325,,,,,,,,,,71325,0.19140625,0.228515625,0.928955078,-13.54980469,10.68115234,-18.06640625,15.5943327,-12.59095097,89.34311676,arduino
71.345,,,,,,,,,,71345,0.188964844,0.225341797,0.955932617,-21.97265625,7.263183594,-13.91601563,15.31068897,-12.41935062,89.24482727,arduino
71.355,,,,,,,,,,71355,0.208374023,0.247192383,0.969238281,-25.14648438,5.37109375,-12.6953125,14.99016666,-12.27425861,89.15351105,arduino
71.365,,,,,,,,,,71365,0.21496582,0.261352539,0.966308594,-31.06689453,4.943847656,-11.77978516,14.78046322,-12.11168766,89.03305817,arduino
71.375,,,,,,,,,,71375,0.223999023,0.304443359,0.98425293,-39.00146484,6.286621094,-10.19287109,14.52113247,-12.03291035,88.92481232,arduino
71.385,,,,,,,,,,71385,0.226806641,0.326171875,1.025390625,-48.76708984,6.713867188,-7.385253906,14.15900517,-11.94555569,88.84495544,arduino
71.395,,,,,,,,,,71395,0.20324707,0.323730469,1.014648438,-62.19482422,6.896972656,-6.958007813,13.65779495,-11.82734013,88.76998901,arduino
71.405,,,,,,,,,,71405,0.192871094,0.258178711,1.009155273,-71.89941406,9.582519531,-6.958007813,13.00136375,-11.6162672,88.71193695,arduino
71.415,,,,,,,,,,71415,0.158081055,0.246582031,1.01171875,-73.85253906,12.14599609,-9.948730469,12.30324745,-11.36541939,88.63408661,arduino
71.425,,,,,,,,,,71425,0.163696289,0.217163086,0.994506836,-70.19042969,15.68603516,-10.07080078,11.6152029,-11.07851601,88.56594849,arduino
71.435,,,,,,,,,,71435,0.131225586,0.22277832,0.987792969,-67.74902344,17.82226563,-8.483886719,10.97975254,-10.7780447,88.50988007,arduino
71.445,,,,,,,,,,71445,0.114013672,0.144287109,0.994384766,-71.65527344,17.70019531,-9.582519531,10.21449089,-10.49247074,88.4577713,arduino
71.455,,,,,,,,,,71455,-0.049072266,0.19140625,0.891845703,-77.75878906,18.49365234,-8.7890625,9.463040352,-10.18311787,88.39819336,arduino
71.465,,,,,,,,,,71465,0.237304688,0.224975586,1.174194336,-96.61865234,14.58740234,5.126953125,8.573543549,-10.11532974,88.45751953,arduino
71.475,,,,,,,,,,71475,0.269287109,0.189208984,1.007324219,-120.1171875,-11.23046875,-8.117675781,7.435023785,-10.31799507,88.35307312,arduino
71.485,,,,,,,,,,71485,0.114624023,0.063964844,0.861816406,-117.2485352,-10.43701172,-9.582519531,6.19610548,-10.33663177,88.25835419,arduino
71.495,,,,,,,,,,71495,0.135009766,0.041259766,0.799560547,-104.8583984,5.676269531,-9.582519531,5.051555634,-10.24468231,88.18695068,arduino
71.505,,,,,,,,,,71505,0.218383789,0.074584961,0.851196289,-91.12548828,16.17431641,-12.20703125,4.158718109,-10.18653107,88.07762909,arduino
71.515,,,,,,,,,,71515,0.182861328,0.095825195,0.834350586,-81.72607422,19.47021484,-13.06152344,3.447725534,-10.0592947,87.94377899,arduino
71.525,,,,,,,,,,71525,0.137573242,0.107055664,0.863525391,-82.39746094,20.56884766,-14.40429688,2.758620501,-9.813776016,87.78939056,arduino
71.535,,,,,,,,,,71535,0.130981445,0.096313477,0.889526367,-90.57617188,17.51708984,-14.03808594,1.982266545,-9.587474823,87.63597107,arduino
71.545,,,,,,,,,,71545,0.128173828,0.08190918,0.876220703,-101.3183594,10.55908203,-12.39013672,1.097739458,-9.437415123,87.49488831,arduino
71.555,,,,,,,,,,71555,0.114013672,0.081420898,0.858154297,-109.0698242,2.807617188,-11.10839844,0.131685838,-9.362351418,87.36479187,arduino
71.565,,,,,,,,,,71565,0.1171875,0.072265625,0.838378906,-113.1591797,-4.8828125,-9.094238281,-0.873642921,-9.379484177,87.25453949,arduino
71.575,,,,,,,,,,71575,0.128540039,0.022216797,0.856811523,-119.3847656,-12.02392578,-6.103515625,-1.948849201,-9.462518692,87.17757416,arduino
71.585,,,,,,,,,,71585,0.168212891,-0.079833984,0.931762695,-123.1689453,-15.38085938,-1.281738281,-3.291683674,-9.645001411,87.19049835,arduino
71.595,,,,,,,,,,71595,0.187866211,-0.130615234,0.982910156,-113.2202148,-13.36669922,2.258300781,-4.541057587,-9.80572319,87.2416687,arduino
71.615,,,,,,,,,,71615,0.105834961,-0.169677734,1.053710938,-80.20019531,-9.460449219,2.502441406,-5.435150623,-9.82128334,87.28943634,arduino
71.635,,,,,,,,,,71635,0.129760742,-0.340209961,0.967163086,-93.50585938,-11.65771484,3.112792969,-6.4920187,-9.914698601,87.35249329,arduino
71.655,,,,,,,,,,71655,0.049804688,-0.163452148,1.343139648,-82.51953125,-13.85498047,4.577636719,-7.334619999,-9.933861732,87.41587067,arduino
71.665,,,,,,,,,,71665,0.161743164,-0.286865234,1.092895508,-92.83447266,-44.12841797,5.493164063,-8.396261215,-10.33718491,87.55168152,arduino
71.675,,,,,,,,,,71675,0.120483398,-0.41003418,0.887573242,-97.90039063,-43.76220703,11.53564453,-9.522963524,-10.73102093,87.75714874,arduino
71.685,,,,,,,,,,71685,0.181640625,-0.447265625,0.821899414,-89.59960938,-31.98242188,11.10839844,-10.5654583,-11.03140163,87.94675446,arduino
71.695,,,,,,,,,,71695,0.190185547,-0.501953125,0.81262207,-78.85742188,-23.49853516,10.19287109,-11.49710464,-11.24761486,88.11647797,arduino
71.705,,,,,,,,,,71705,0.200805664,-0.510986328,0.834960938,-68.60351563,-16.35742188,8.056640625,-12.31989574,-11.39672089,88.25363159,arduino
71.715,,,,,,,,,,71715,0.212280273,-0.467773438,0.881469727,-59.26513672,-7.202148438,4.089355469,-13.03756523,-11.46541309,88.33300781,arduino
71.725,,,,,,,,,,71725,0.176391602,-0.422851563,0.908813477,-54.87060547,-0.854492188,0.244140625,-13.7010231,-11.46110821,88.36003876,arduino
71.735,,,,,,,,,,71735,0.167114258,-0.408081055,0.918945313,-54.07714844,-2.258300781,-1.281738281,-14.35312557,-11.4656868,88.37524414,arduino
71.745,,,,,,,,,,71745,0.175048828,-0.373779297,0.922119141,-52.734375,-6.958007813,-1.220703125,-14.99415207,-11.51574612,88.40345764,arduino
71.755,,,,,,,,,,71755,0.175170898,-0.360961914,0.904907227,-52.734375,-10.86425781,-1.342773438,-15.63692093,-11.60326767,88.4418335,arduino
71.765,,,,,,,,,,71765,0.176025391,-0.357788086,0.869995117,-52.36816406,-13.79394531,-1.098632813,-16.27882957,-11.7232275,88.49234009,arduino
71.775,,,,,,,,,,71775,0.180419922,-0.327636719,0.84362793,-52.24609375,-15.13671875,0,-16.92301369,-11.85885143,88.55940247,arduino
71.785,,,,,,,,,,71785,0.174682617,-0.30065918,0.825927734,-53.46679688,-14.16015625,1.525878906,-17.58097458,-11.96765327,88.63996887,arduino
71.795,,,,,,,,,,71795,0.161987305,-0.303710938,0.818847656,-55.17578125,-12.63427734,3.845214844,-18.2505188,-12.02291203,88.73792267,arduino
71.805,,,,,,,,,,71805,0.158081055,-0.319213867,0.80871582,-54.56542969,-10.49804688,6.8359375,-18.91896248,-12.04810238,88.85930634,arduino
71.815,,,,,,,,,,71815,0.157714844,-0.3359375,0.805541992,-53.34472656,-7.568359375,9.826660156,-19.58057976,-12.03788567,89.0009079,arduino
71.825,,,,,,,,,,71825,0.168823242,-0.365356445,0.80480957,-48.27880859,-4.272460938,12.87841797,-20.20168495,-12.00740719,89.16226959,arduino
71.835,,,,,,,,,,71835,0.173217773,-0.392700195,0.826049805,-36.25488281,-0.244140625,15.99121094,-20.70549011,-11.92793941,89.33891296,arduino
71.845,,,,,,,,,,71845,0.18347168,-0.465576172,0.869140625,-24.16992188,4.8828125,18.79882813,-21.09046364,-11.79627323,89.52321625,arduino
71.855,,,,,,,,,,71855,0.206054688,-0.539916992,0.887207031,-6.896972656,9.826660156,20.26367188,-21.30172539,-11.62715626,89.70240784,arduino
71.865,,,,,,,,,,71865,0.190917969,-0.536010742,0.896606445,18.49365234,15.56396484,20.44677734,-21.25433731,-11.39519501,89.86138916,arduino
71.875,,,,,,,,,,71875,0.177124023,-0.527099609,0.935424805,35.21728516,22.4609375,20.20263672,-21.03232384,-11.08747864,89.99238586,arduino
71.885,,,,,,,,,,71885,0.162963867,-0.533447266,0.98840332,39.73388672,26.3671875,19.34814453,-20.75723457,-10.73301029,90.1010437,arduino
71.895,,,,,,,,,,71895,0.154907227,-0.534790039,1.025634766,38.81835938,25.75683594,18.37158203,-20.48742676,-10.38155842,90.20297241,arduino
71.905,,,,,,,,,,71905,0.156616211,-0.543457031,1.042724609,36.56005859,23.31542969,17.578125,-20.24198723,-10.06161022,90.30695343,arduino
71.915,,,,,,,,,,71915,0.157348633,-0.565795898,1.027954102,35.82763672,20.32470703,0.427246094,-19.98018837,-9.840397835,90.25901794,arduino
71.935,,,,,,,,,,71935,0.171264648,-0.641357422,0.985961914,56.09130859,14.77050781,8.117675781,-19.53429604,-9.663007736,90.30474854,arduino
71.955,,,,,,,,,,71955,0.170532227,-0.622436523,1.049194336,75.62255859,20.75195313,1.159667969,-18.87880135,-9.448283195,90.26522064,arduino
71.975,,,,,,,,,,71975,0.142333984,-0.636352539,1.035766602,71.71630859,15.01464844,-7.568359375,-18.25172997,-9.308192253,90.16220856,arduino
71.995,,,,,,,,,,71995,0.119140625,-0.45703125,0.937011719,87.52441406,11.41357422,-15.07568359,-17.45412636,-9.208900452,89.99889374,arduino
72.005,,,,,,,,,,72005,0.111572266,-0.408447266,0.926269531,94.17724609,12.75634766,-17.08984375,-16.58374214,-9.090614319,89.8125,arduino
72.015,,,,,,,,,,72015,0.117553711,-0.360473633,0.927124023,103.4545898,15.86914063,-16.29638672,-15.61963844,-8.932988167,89.62598419,arduino
72.025,,,,,,,,,,72025,0.108276367,-0.274780273,0.941040039,112.6098633,20.99609375,-13.85498047,-14.49242401,-8.655426979,89.44084167,arduino
72.035,,,,,,,,,,72035,0.092285156,-0.202514648,0.931640625,115.8447266,25.87890625,-11.10839844,-13.24357319,-8.340378761,89.26028442,arduino
72.045,,,,,,,,,,72045,0.086303711,-0.182373047,0.931884766,115.9057617,28.80859375,-7.568359375,-12.00108242,-7.98401165,89.11380768,arduino
72.055,,,,,,,,,,72055,0.071655273,-0.1640625,0.938598633,114.2578125,27.64892578,-1.892089844,-10.79279518,-7.619216919,89.03326416,arduino
72.065,,,,,,,,,,72065,0.084106445,-0.207275391,0.972167969,116.1499023,25.51269531,3.723144531,-9.677276611,-7.257030964,89.03173828,arduino
72.075,,,,,,,,,,72075,0.087890625,-0.24621582,0.951049805,129.3334961,26.67236328,5.554199219,-8.490898132,-6.939147472,89.05831146,arduino
72.085,,,,,,,,,,72085,0.072631836,-0.275268555,0.947875977,146.9116211,32.2265625,4.943847656,-7.131102562,-6.575870514,89.07707214,arduino
72.095,,,,,,,,,,72095,0.079345703,-0.322265625,0.963134766,159.4238281,37.35351563,3.90625,-5.649813652,-6.180811405,89.08748627,arduino
72.105,,,,,,,,,,72105,0.072753906,-0.302246094,0.974243164,168.5180664,39.42871094,0.915527344,-4.075556278,-5.768034935,89.07551575,arduino
72.115,,,,,,,,,,72115,0.050048828,-0.259521484,0.973999023,172.1191406,39.73388672,-4.577636719,-2.459214211,-5.345150948,89.01846313,arduino
72.125,,,,,,,,,,72125,0.016235352,-0.183959961,0.988037109,167.4804688,37.71972656,-10.86425781,-0.875022352,-4.916911125,88.90858459,arduino
72.135,,,,,,,,,,72135,-0.008911133,-0.107666016,0.997436523,157.5927734,33.14208984,-14.09912109,0.632181346,-4.504086971,88.77438354,arduino
72.145,,,,,,,,,,72145,-0.021850586,-0.051025391,0.963867188,147.7050781,26.61132813,-15.25878906,2.058920383,-4.137959003,88.63369751,arduino
72.155,,,,,,,,,,72155,-0.042358398,0.038696289,0.934814453,143.0053711,19.28710938,-15.68603516,3.504443884,-3.823528051,88.48708344,arduino
72.165,,,,,,,,,,72165,-0.049316406,0.135375977,0.928833008,130.5541992,12.51220703,-14.09912109,4.884359837,-3.594633341,88.3520813,arduino
72.175,,,,,,,,,,72175,-0.048217773,0.138305664,0.896362305,112.121582,5.249023438,-9.643554688,6.069130898,-3.434308529,88.25830841,arduino
72.185,,,,,,,,,,72185,-0.021728516,0.103393555,0.843994141,110.6567383,-1.953125,-3.540039063,7.198928833,-3.337061644,88.22068787,arduino
72.195,,,,,,,,,,72195,-0.007324219,0.12487793,0.82434082,122.1313477,-3.662109375,1.342773438,8.459364891,-3.267650604,88.22786713,arduino
72.205,,,,,,,,,,72205,-0.01184082,0.138427734,0.859130859,122.7416992,-0.671386719,5.126953125,9.70330143,-3.16948247,88.2776413,arduino
72.215,,,,,,,,,,72215,-0.008789063,0.117431641,0.885498047,119.5068359,2.9296875,9.399414063,10.83629799,-3.05900836,88.37960815,arduino
72.225,,,,,,,,,,72225,-0.010009766,0.114013672,0.891723633,122.5585938,5.798339844,11.41357422,11.97708321,-2.943339348,88.50815582,arduino
72.235,,,,,,,,,,72235,-0.002441406,0.109619141,0.913696289,121.5209961,8.239746094,10.7421875,13.08991241,-2.828430414,88.63657379,arduino
72.245,,,,,,,,,,72245,-0.002685547,0.126831055,0.943969727,111.7553711,8.605957031,7.32421875,14.10501766,-2.708271265,88.73344421,arduino
72.265,,,,,,,,,,72265,-0.004516602,0.164306641,0.894287109,84.53369141,3.234863281,2.563476563,14.86183453,-2.612986803,88.77098083,arduino
72.285,,,,,,,,,,72285,-0.045898438,0.334106445,0.825317383,61.09619141,-3.723144531,3.90625,15.56075191,-2.590021849,88.7952652,arduino
72.305,,,,,,,,,,72305,-0.043334961,0.391723633,0.769165039,60.48583984,-6.652832031,11.10839844,16.262537,-2.636255264,88.87966156,arduino
72.315,,,,,,,,,,72315,-0.039916992,0.41027832,0.775390625,62.31689453,-4.577636719,15.56396484,16.98111725,-2.678863049,89.01140594,arduino
72.325,,,,,,,,,,72325,-0.037597656,0.383178711,0.767333984,61.82861328,-2.563476563,19.95849609,17.68889236,-2.70960927,89.19018555,arduino
72.335,,,,,,,,,,72335,-0.039428711,0.350952148,0.76574707,60.24169922,-1.403808594,23.4375,18.36948013,-2.72669816,89.40512085,arduino
72.345,,,,,,,,,,72345,-0.016357422,0.320068359,0.809692383,57.25097656,-0.305175781,25.75683594,19.00318146,-2.725630522,89.64538574,arduino
72.355,,,,,,,,,,72355,-0.008789063,0.331298828,0.846191406,57.49511719,0.061035156,26.06201172,19.63290596,-2.71958065,89.88909912,arduino
72.365,,,,,,,,,,72365,-0.004882813,0.345947266,0.85546875,56.15234375,-1.281738281,24.71923828,20.2535305,-2.72729063,90.11447906,arduino
72.375,,,,,,,,,,72375,0.005981445,0.328735352,0.836181641,49.25537109,-4.39453125,23.25439453,20.78850174,-2.748784065,90.31505585,arduino
72.385,,,,,,,,,,72385,0.02746582,0.333007813,0.817016602,40.95458984,-7.995605469,21.91162109,21.28034401,-2.838723898,90.48693848,arduino
72.395,,,,,,,,,,72395,0.036865234,0.379516602,0.783569336,31.18896484,-11.10839844,20.01953125,21.69237137,-3.005768538,90.62737274,arduino
72.405,,,,,,,,,,72405,0.024291992,0.422851563,0.762573242,19.77539063,-14.28222656,18.85986328,21.98986626,-3.188240767,90.74389648,arduino
72.415,,,,,,,,,,72415,0.015136719,0.439086914,0.766113281,10.00976563,-17.27294922,20.14160156,22.1875248,-3.394825459,90.85995483,arduino
72.425,,,,,,,,,,72425,0.013183594,0.487426758,0.752075195,6.530761719,-18.67675781,22.03369141,22.35020256,-3.626519203,90.98709106,arduino
72.435,,,,,,,,,,72435,-0.009643555,0.565185547,0.736938477,3.479003906,-18.43261719,23.86474609,22.4799614,-3.85921669,91.13109589,arduino
72.445,,,,,,,,,,72445,-0.01550293,0.581420898,0.734863281,-0.732421875,-17.27294922,26.61132813,22.56445885,-4.089702606,91.3041153,arduino
72.455,,,,,,,,,,72455,-0.002441406,0.604980469,0.768676758,1.037597656,-14.28222656,28.68652344,22.6644783,-4.304106236,91.5070343,arduino
72.465,,,,,,,,,,72465,0.021606445,0.599853516,0.811279297,7.995605469,-9.033203125,31.12792969,22.83096695,-4.484903336,91.75191498,arduino
72.475,,,,,,,,,,72475,0.038330078,0.575683594,0.842529297,19.95849609,-3.540039063,33.75244141,23.11296844,-4.628382206,92.0414505,arduino
72.485,,,,,,,,,,72485,0.055175781,0.529785156,0.880981445,28.86962891,0.793457031,35.46142578,23.48062325,-4.740973949,92.36278534,arduino
72.495,,,,,,,,,,72495,0.068725586,0.503662109,0.91418457,28.80859375,2.9296875,35.88867188,23.84604645,-4.839311123,92.69563293,arduino
72.505,,,,,,,,,,72505,0.079711914,0.493408203,0.934692383,21.30126953,1.46484375,34.60693359,24.1376915,-4.952838421,93.0098877,arduino
72.515,,,,,,,,,,72515,0.093139648,0.508300781,0.947143555,7.995605469,-3.540039063,31.92138672,24.29980469,-5.116306782,93.27825165,arduino
72.525,,,,,,,,,,72525,0.142944336,0.620483398,0.989379883,-8.056640625,-12.14599609,29.05273438,24.30278397,-5.371914864,93.48467255,arduino
72.535,,,,,,,,,,72535,0.087890625,0.583862305,0.942626953,-23.92578125,-26.73339844,25.390625,24.15826607,-5.708451271,93.59703827,arduino
72.545,,,,,,,,,,72545,0.092651367,0.495849609,0.879760742,-35.03417969,-45.16601563,24.04785156,23.91103745,-6.209720135,93.62226105,arduino
72.555,,,,,,,,,,72555,0.171630859,0.484008789,0.833618164,-52.97851563,-57.49511719,23.31542969,23.47393036,-6.887264252,93.59506226,arduino
72.565,,,,,,,,,,72565,0.128662109,0.435302734,0.879516602,-84.22851563,-61.03515625,18.31054688,22.74554443,-7.541944504,93.51097107,arduino
72.585,,,,,,,,,,72585,0.139404297,0.250488281,0.960571289,-125.1831055,-66.46728516,10.80322266,21.40622902,-8.205509186,93.37404633,arduino
72.605,,,,,,,,,,72605,0.210693359,0.206176758,0.921142578,-96.13037109,-49.49951172,-2.44140625,20.37511063,-8.710499763,93.18711853,arduino
72.625,,,,,,,,,,72625,0.189819336,0.233886719,0.956542969,-87.46337891,-28.62548828,-12.63427734,19.4285202,-8.972702026,92.98448181,arduino
72.645,,,,,,,,,,72645,0.173828125,0.309326172,1.029052734,-91.36962891,-14.58740234,-12.81738281,18.43122864,-9.078223228,92.83100891,arduino
72.655,,,,,,,,,,72655,0.165893555,0.375,1.072753906,-85.63232422,-8.361816406,-10.92529297,17.67998505,-9.046452522,92.68579865,arduino
72.665,,,,,,,,,,72665,0.16394043,0.408691406,1.104980469,-80.62744141,-5.676269531,-8.666992188,16.99389267,-9.030662537,92.56829071,arduino
72.675,,,,,,,,,,72675,0.161010742,0.383300781,1.116455078,-82.33642578,-4.638671875,-6.34765625,16.27850723,-8.99540329,92.47782898,arduino
72.685,,,,,,,,,,72685,0.169189453,0.352294922,1.127807617,-87.58544922,-4.577636719,-3.41796875,15.4999752,-8.959218025,92.41729736,arduino
72.695,,,,,,,,,,72695,0.177246094,0.326904297,1.129882813,-96.00830078,-5.432128906,-1.770019531,14.64263439,-8.947569847,92.37004852,arduino
72.705,,,,,,,,,,72705,0.174926758,0.274536133,1.110717773,-109.0087891,-6.774902344,-1.647949219,13.45185471,-8.973795891,92.35328674,arduino
72.715,,,,,,,,,,72715,0.187866211,0.227783203,1.064453125,-120.0561523,-7.873535156,-3.112792969,12.16020584,-9.102497101,92.32090759,arduino
72.725,,,,,,,,,,72725,0.194458008,0.234375,0.9921875,-115.9667969,-7.629394531,-6.286621094,11.07485485,-9.257774353,92.2341156,arduino
72.735,,,,,,,,,,72735,0.190551758,0.240356445,0.968139648,-107.7880859,-3.234863281,-8.117675781,10.10975456,-9.328924179,92.13185883,arduino
72.745,,,,,,,,,,72745,0.197021484,0.208374023,0.987792969,-104.4921875,4.028320313,-8.605957031,9.158872604,-9.352617264,92.04025269,arduino
72.755,,,,,,,,,,72755,0.19140625,0.122802734,1.010986328,-101.0131836,10.07080078,-9.704589844,8.062128067,-9.296628952,91.97507477,arduino
72.765,,,,,,,,,,72765,0.188964844,0.008666992,1.092529297,-93.87207031,15.13671875,-10.19287109,7.02169466,-9.142048836,91.91146088,arduino
72.775,,,,,,,,,,72775,0.202270508,-0.045532227,1.188598633,-88.13476563,20.38574219,-11.16943359,6.039194584,-8.934488297,91.84090424,arduino
72.785,,,,,,,,,,72785,0.194946289,-0.03894043,1.211791992,-83.80126953,21.78955078,-15.93017578,5.107127666,-8.706151009,91.71981049,arduino
72.795,,,,,,,,,,72795,0.158569336,-0.007202148,1.173217773,-78.73535156,16.54052734,-21.91162109,4.237407684,-8.503183365,91.52953339,arduino
72.805,,,,,,,,,,72805,0.132568359,0.006347656,1.121948242,-77.69775391,8.728027344,-25.08544922,3.391812563,-8.352701187,91.29750824,arduino
72.815,,,,,,,,,,72815,0.142456055,-0.004394531,1.094726563,-82.88574219,2.502441406,-25.57373047,2.488413095,-8.286076546,91.05666351,arduino
72.825,,,,,,,,,,72825,0.153320313,-0.014282227,1.064331055,-88.62304688,-0.9765625,-25.390625,1.523533106,-8.284098625,90.81652832,arduino
72.835,,,,,,,,,,72835,0.169189453,-0.040893555,0.999023438,-89.05029297,-2.197265625,-25.69580078,0.561393619,-8.339225769,90.57256317,arduino
72.845,,,,,,,,,,72845,0.167114258,-0.029663086,0.9140625,-81.29882813,-0.610351563,-26.06201172,-0.301115602,-8.418574333,90.32244873,arduino
72.855,,,,,,,,,,72855,0.147949219,-0.006103516,0.853759766,-73.36425781,2.624511719,-24.78027344,-1.006480694,-8.508195877,90.07364655,arduino
72.865,,,,,,,,,,72865,0.150146484,0.008056641,0.811157227,-72.81494141,6.652832031,-21.97265625,-1.630495787,-8.536563873,89.83999634,arduino
72.875,,,,,,,,,,72875,0.166870117,0.00769043,0.805175781,-75.43945313,10.80322266,-18.37158203,-2.292568207,-8.529540062,89.64164734,arduino
72.885,,,,,,,,,,72885,0.17175293,-0.036865234,0.775268555,-73.66943359,15.31982422,-14.58740234,-3.018491745,-8.495926857,89.48966217,arduino
72.895,,,,,,,,,,72895,0.170288086,-0.094360352,0.760009766,-69.09179688,20.75195313,-9.704589844,-3.773275375,-8.375668526,89.39167786,arduino
72.915,,,,,,,,,,72915,0.197509766,-0.303100586,1.073974609,-34.54589844,54.6875,-10.43701172,-4.212348461,-7.855093479,89.26472473,arduino
72.935,,,,,,,,,,72935,0.059204102,-0.150878906,1.264282227,-14.77050781,52.67333984,-15.38085938,-4.38599062,-7.239239216,89.07705688,arduino
72.955,,,,,,,,,,72955,0.016357422,-0.106201172,1.063110352,-31.25,16.23535156,-10.92529297,-4.70664978,-6.974474907,88.95695496,arduino
72.965,,,,,,,,,,72965,0.046508789,-0.139770508,0.951293945,-31.43310547,1.403808594,-5.493164063,-5.089899063,-6.878778458,88.90951538,arduino
72.975,,,,,,,,,,72975,0.088134766,-0.188842773,0.873291016,-22.58300781,-2.868652344,-0.061035156,-5.429496765,-6.88831377,88.9250946,arduino
72.985,,,,,,,,,,72985,0.121459961,-0.229370117,0.844238281,-11.47460938,3.540039063,3.479003906,-5.661991596,-6.862792969,88.9702301,arduino
72.995,,,,,,,,,,72995,0.137084961,-0.235595703,0.854370117,-2.258300781,14.89257813,4.638671875,-5.800395012,-6.733505726,89.01513672,arduino
73.005,,,,,,,,,,73005,0.135131836,-0.21887207,0.865600586,3.784179688,24.71923828,3.540039063,-5.875155449,-6.510046482,89.0383606,arduino
73.015,,,,,,,,,,73015,0.113525391,-0.193725586,0.887939453,1.831054688,29.41894531,1.586914063,-5.969194412,-6.227385998,89.03663635,arduino
73.025,,,,,,,,,,73025,0.098388672,-0.158203125,0.892944336,-6.958007813,27.58789063,-0.48828125,-6.149762154,-5.953022003,89.01491547,arduino
73.035,,,,,,,,,,73035,0.085327148,-0.203857422,0.918823242,-19.53125,20.87402344,-1.770019531,-6.454811096,-5.734279633,88.98596954,arduino
73.045,,,,,,,,,,73045,0.095336914,-0.263793945,0.961669922,-26.3671875,14.46533203,-1.037597656,-6.830197811,-5.589131355,88.97022247,arduino
73.055,,,,,,,,,,73055,0.098999023,-0.269287109,0.985961914,-23.62060547,12.20703125,-2.197265625,-7.177140713,-5.470682144,88.94450378,arduino
73.065,,,,,,,,,,73065,0.081542969,-0.239990234,0.977905273,-17.51708984,12.14599609,-4.821777344,-7.4598279,-5.3425107,88.89172363,arduino
73.075,,,,,,,,,,73075,0.050537109,-0.190917969,0.936035156,-11.77978516,10.7421875,-6.896972656,-7.669889927,-5.188727856,88.81806946,arduino
73.085,,,,,,,,,,73085,0.03527832,-0.14831543,0.883911133,-10.7421875,7.629394531,-6.896972656,-7.831767559,-5.025580883,88.74454498,arduino
73.095,,,,,,,,,,73095,0.031738281,-0.124755859,0.833740234,-14.58740234,3.723144531,-4.455566406,-7.999791622,-4.883473396,88.69724274,arduino
73.105,,,,,,,,,,73105,0.036132813,-0.140625,0.780151367,-18.12744141,-0.244140625,-2.258300781,-8.259449959,-4.807126522,88.6818161,arduino
73.115,,,,,,,,,,73115,0.056274414,-0.163208008,0.731811523,-15.68603516,-1.831054688,-0.671386719,-8.529170036,-4.813033104,88.68726349,arduino
73.125,,,,,,,,,,73125,0.069213867,-0.170654297,0.703125,-6.774902344,1.037597656,0.854492188,-8.710097313,-4.81627655,88.70366669,arduino
73.135,,,,,,,,,,73135,0.06262207,-0.208374023,0.73046875,1.159667969,8.239746094,1.708984375,-8.812565804,-4.731206417,88.71756744,arduino
73.145,,,,,,,,,,73145,0.072265625,-0.252807617,0.821655273,6.408691406,17.76123047,2.9296875,-8.862232208,-4.552919388,88.72861481,arduino
73.155,,,,,,,,,,73155,0.051391602,-0.270019531,0.925415039,12.39013672,25.93994141,2.319335938,-8.848745346,-4.27097559,88.72041321,arduino
73.165,,,,,,,,,,73165,0.022583008,-0.280517578,0.994750977,18.5546875,28.99169922,-0.366210938,-8.764508247,-3.939732552,88.68013763,arduino
73.175,,,,,,,,,,73175,0.01159668,-0.275390625,1.026000977,20.81298828,26.18408203,-3.051757813,-8.652866364,-3.632469177,88.61717224,arduino
73.185,,,,,,,,,,73185,0.011230469,-0.266479492,1.031738281,17.45605469,18.98193359,-4.8828125,-8.575037956,-3.399788618,88.54679108,arduino
73.195,,,,,,,,,,73195,0.012573242,-0.245727539,1.006835938,11.35253906,10.92529297,-7.141113281,-8.557589531,-3.249505043,88.46578217,arduino
73.205,,,,,,,,,,73205,0.028198242,-0.222412109,0.968505859,5.004882813,4.699707031,-9.27734375,-8.60888958,-3.177456856,88.37291718,arduino
73.215,,,,,,,,,,73215,0.039794922,-0.220703125,0.931762695,-0.366210938,0.793457031,-11.47460938,-8.718312263,-3.168177843,88.264328,arduino
73.235,,,,,,,,,,73235,0.010742188,-0.247436523,0.854248047,11.10839844,2.990722656,-16.23535156,-8.706274986,-3.127556562,88.10507965,arduino
73.255,,,,,,,,,,73255,0.020874023,-0.235473633,0.966552734,36.31591797,17.578125,-14.95361328,-8.440272331,-2.935259104,87.93667603,arduino
73.275,,,,,,,,,,73275,-0.024291992,-0.184570313,1.106811523,61.09619141,32.40966797,-12.32910156,-7.848754883,-2.520653248,87.77050781,arduino
,23.987035751342773,0.06256775557994843,9.938176155090332,0.0,-2.855349063873291,28.518909454345703,0,0,0,,,,,,,,,,,odrive
,23.9564208984375,0.06256775557994843,9.938176155090332,0.0,-2.855349063873291,28.517597198486328,0,0,0,,,,,,,,,,,odrive
,23.9564208984375,0.06256775557994843,9.938176155090332,0.0,-2.855349063873291,28.51742935180664,0,0,0,,,,,,,,,,,odrive
,23.9564208984375,0.06256775557994843,9.938176155090332,0.0,-2.855349063873291,28.516225814819336,0,0,0,,,,,,,,,,,odrive
,23.94111442565918,0.06256775557994843,9.938176155090332,0.0,-2.855349063873291,28.515724182128906,0,0,0,,,,,,,,,,,odrive
,23.987035751342773,0.06256775557994843,9.938176155090332,0.0,-2.855349063873291,28.515165328979492,0,0,0,,,,,,,,,,,odrive
,23.971729278564453,0.06256775557994843,9.938176155090332,0.0,-2.855349063873291,28.51490592956543,0,0,0,,,,,,,,,,,odrive
,24.002344131469727,0.06256775557994843,9.938176155090332,0.0,-2.855349063873291,28.514358520507812,0,0,0,,,,,,,,,,,odrive
,23.9564208984375,0.06256775557994843,9.938176155090332,0.0,-2.855349063873291,28.514089584350586,0,0,0,,,,,,,,,,,odrive
,24.002344131469727,0.06256775557994843,9.938176155090332,0.0,-2.855349063873291,28.513782501220703,0,0,0,,,,,,,,,,,odrive
,23.9564208984375,0.06256775557994843,9.938176155090332,0.0,-2.855349063873291,28.513141632080078,0,0,0,,,,,,,,,,,odrive
,23.9564208984375,0.06256775557994843,9.938176155090332,0.0,-2.855349063873291,28.513057708740234,0,0,0,,,,,,,,,,,odrive
,23.9564208984375,0.06256775557994843,9.938176155090332,0.0,-2.855349063873291,28.512529373168945,0,0,0,,,,,,,,,,,odrive
,23.94111442565918,0.06256775557994843,9.938176155090332,0.0,-2.855349063873291,28.511367797851562,0,0,0,,,,,,,,,,,odrive
,23.9564208984375,0.06256775557994843,9.938176155090332,0.0,-2.855349063873291,28.511018753051758,0,0,0,,,,,,,,,,,odrive
,23.9564208984375,0.06256775557994843,9.938176155090332,0.0,-2.855349063873291,28.510570526123047,0,0,0,,,,,,,,,,,odrive
,23.9564208984375,0.06256775557994843,9.938176155090332,0.0,-2.855349063873291,28.509973526000977,0,0,0,,,,,,,,,,,odrive
,23.9564208984375,0.06256775557994843,9.938176155090332,0.0,-2.855349063873291,28.509872436523438,0,0,0,,,,,,,,,,,odrive
,23.94111442565918,0.06256775557994843,9.938176155090332,0.0,-2.855349063873291,28.50984764099121,0,0,0,,,,,,,,,,,odrive
,23.987035751342773,0.06256775557994843,9.938176155090332,0.0,-2.855349063873291,28.509801864624023,0,0,0,,,,,,,,,,,odrive
,23.987035751342773,0.06256775557994843,9.938176155090332,0.0,-2.855349063873291,28.509807586669922,0,0,0,,,,,,,,,,,odrive
,24.01765251159668,0.06256775557994843,9.938176155090332,0.0,-2.855349063873291,28.509796142578125,0,0,0,,,,,,,,,,,odrive
,23.9564208984375,0.06256775557994843,9.938176155090332,0.0,-2.855349063873291,28.509559631347656,0,0,0,,,,,,,,,,,odrive
,23.925806045532227,0.06256775557994843,9.938176155090332,0.0,-2.855349063873291,28.507837295532227,0,0,0,,,,,,,,,,,odrive
,24.048267364501953,0.06256775557994843,9.938176155090332,0.0,-2.855349063873291,28.50765037536621,0,0,0,,,,,,,,,,,odrive
,23.94111442565918,0.06256775557994843,9.938176155090332,0.0,-2.855349063873291,28.506576538085938,0,0,0,,,,,,,,,,,odrive
,23.9564208984375,0.06256775557994843,9.938176155090332,0.0,-2.855349063873291,28.505138397216797,0,0,0,,,,,,,,,,,odrive
,23.9564208984375,0.06256775557994843,9.938176155090332,0.0,-2.855349063873291,28.504823684692383,0,0,0,,,,,,,,,,,odrive
,23.9564208984375,0.06256775557994843,9.938176155090332,0.0,-2.855349063873291,28.503938674926758,0,0,0,,,,,,,,,,,odrive
,23.9564208984375,0.06256775557994843,9.938176155090332,0.0,-2.855349063873291,28.503707885742188,0,0,0,,,,,,,,,,,odrive
,23.9564208984375,0.06256775557994843,9.938176155090332,0.0,-2.855349063873291,28.50335693359375,0,0,0,,,,,,,,,,,odrive
,23.94111442565918,0.06256775557994843,9.938176155090332,0.0,-2.855349063873291,28.50237464904785,0,0,0,,,,,,,,,,,odrive
,23.9564208984375,0.06256775557994843,-0.08641926944255829,-0.03051757998764515,-2.855499744415283,28.501924514770508,0,0,0,,,,,,,,,,,odrive
,24.002344131469727,0.033101022243499756,0.2636866271495819,0.0,-2.855412006378174,28.501916885375977,0,0,0,,,,,,,,,,,odrive
,23.9564208984375,-0.009024593979120255,0.0076898932456970215,0.0457763709127903,-2.8554272651672363,28.5020809173584,0,0,0,,,,,,,,,,,odrive
,23.925806045532227,0.0026667416095733643,0.21950143575668335,0.0,-2.8554463386535645,28.50252342224121,0,0,0,,,,,,,,,,,odrive
,23.925806045532227,-0.06828638911247253,-0.1048474907875061,-0.015258791856467724,-2.855482578277588,28.502851486206055,0,0,0,,,,,,,,,,,odrive
,24.002344131469727,-0.009370680898427963,-0.014489136636257172,-0.0457763709127903,-2.8555855751037598,28.50336265563965,0,0,0,,,,,,,,,,,odrive
,23.925806045532227,0.19035817682743073,-0.01877957582473755,0.0305175818502903,-2.8552536964416504,28.504026412963867,0,0,0,,,,,,,,,,,odrive
,23.925806045532227,0.06417283415794373,0.016903094947338104,0.015258791856467724,-2.8553643226623535,28.504358291625977,0,0,0,,,,,,,,,,,odrive
,24.032958984375,0.015707872807979584,0.3577490448951721,0.0,-2.8553624153137207,28.504602432250977,0,0,0,,,,,,,,,,,odrive
,24.002344131469727,-0.11206620186567307,-0.0810113325715065,0.0,-2.855442523956299,28.50477409362793,0,0,0,,,,,,,,,,,odrive
,23.910497665405273,-0.10325424373149872,0.1390838623046875,0.015258795581758022,-2.855104923248291,28.504802703857422,0,0,0,,,,,,,,,,,odrive
,23.925806045532227,-0.22457431256771088,0.01696610450744629,0.015258789993822575,-2.855013370513916,28.504802703857422,0,0,0,,,,,,,,,,,odrive
,23.78803825378418,-0.30307477712631226,-0.012809962034225464,0.0610351637005806,-2.85374116897583,28.504789352416992,0,0,0,,,,,,,,,,,odrive
,23.94111442565918,-0.3555523157119751,0.04830456152558327,0.3051758110523224,-2.8468785285949707,28.505197525024414,0,0,0,,,,,,,,,,,odrive
,24.002344131469727,-0.3019315302371979,-0.0170564204454422,0.3662109673023224,-2.844200611114502,28.505300521850586,0,0,0,,,,,,,,,,,odrive
,23.9564208984375,0.44913235306739807,1.154281198978424e-05,0.6866455674171448,-2.8310647010803223,28.505678176879883,0,0,0,,,,,,,,,,,odrive
,23.9564208984375,-0.32240724563598633,-0.010754265822470188,0.4882813096046448,-2.8239941596984863,28.505773544311523,0,0,0,,,,,,,,,,,odrive
,23.895191192626953,-1.207599401473999,0.006575598381459713,0.4425049424171448,-2.810802936553955,28.5059814453125,0,0,0,,,,,,,,,,,odrive
,23.987035751342773,-1.0020159482955933,-0.06550483405590057,0.4730225205421448,-2.8087449073791504,28.505979537963867,0,0,0,,,,,,,,,,,odrive
,23.971729278564453,-0.4280013144016266,0.12616978585720062,0.8544922471046448,-2.789705753326416,28.506183624267578,0,0,0,,,,,,,,,,,odrive
,23.9564208984375,0.32411232590675354,-0.10956211388111115,1.1444092988967896,-2.7592930793762207,28.506622314453125,0,0,0,,,,,,,,,,,odrive
,23.925806045532227,-1.6986037492752075,0.026169873774051666,0.6713868379592896,-2.7343735694885254,28.5069580078125,0,0,0,,,,,,,,,,,odrive
,23.971729278564453,-0.37625178694725037,0.10637551546096802,1.1596680879592896,-2.7165799140930176,28.50722885131836,0,0,0,,,,,,,,,,,odrive
,23.910497665405273,-0.1013251543045044,-0.018520671874284744,1.3275147676467896,-2.6978211402893066,28.50765037536621,0,0,0,,,,,,,,,,,odrive
,23.971729278564453,-1.6177150011062622,0.04196001589298248,0.9155274629592896,-2.659874439239502,28.508747100830078,0,0,0,,,,,,,,,,,odrive
,23.86457633972168,-1.3793976306915283,-0.07689110189676285,1.1444092988967896,-2.653954029083252,28.508935928344727,0,0,0,,,,,,,,,,,odrive
,23.8033447265625,0.13810600340366364,-0.043619733303785324,1.6784669160842896,-2.614229679107666,28.510053634643555,0,0,0,,,,,,,,,,,odrive
,23.94111442565918,-1.0382001399993896,-0.09516710042953491,1.1596680879592896,-2.594564914703369,28.510555267333984,0,0,0,,,,,,,,,,,odrive
,23.925806045532227,0.01285997498780489,-0.07687965780496597,1.8768311738967896,-2.5434632301330566,28.51197624206543,0,0,0,,,,,,,,,,,odrive
,23.86457633972168,-0.8536472916603088,-0.007047710940241814,1.3275147676467896,-2.5218682289123535,28.51255989074707,0,0,0,,,,,,,,,,,odrive
,23.925806045532227,-0.3135445713996887,-0.06244991719722748,1.6937257051467896,-2.4919095039367676,28.513607025146484,0,0,0,,,,,,,,,,,odrive
,23.910497665405273,-0.7221348285675049,-0.13202440738677979,1.831054925918579,-2.437195301055908,28.515432357788086,0,0,0,,,,,,,,,,,odrive
,23.910497665405273,-0.424167662858963,-0.376449316740036,1.937866449356079,-2.4072060585021973,28.51642417907715,0,0,0,,,,,,,,,,,odrive
,23.971729278564453,-0.8549355268478394,0.0282050259411335,1.724243402481079,-2.3762059211730957,28.517370223999023,0,0,0,,,,,,,,,,,odrive
,24.002344131469727,-0.1146281510591507,0.22596977651119232,2.090454339981079,-2.3469338417053223,28.518253326416016,0,0,0,,,,,,,,,,,odrive
,23.910497665405273,-0.3105895519256592,-0.01836550235748291,2.319336175918579,-2.275719165802002,28.520326614379883,0,0,0,,,,,,,,,,,odrive
,24.002344131469727,-0.5413238406181335,-0.3663901090621948,2.365112543106079,-2.205376148223877,28.522186279296875,0,0,0,,,,,,,,,,,odrive
,23.925806045532227,-0.014649778604507446,0.258201539516449,2.502441644668579,-2.193554401397705,28.52242088317871,0,0,0,,,,,,,,,,,odrive
,24.002344131469727,0.42159518599510193,0.01381448470056057,2.487182855606079,-2.171764850616455,28.522804260253906,0,0,0,,,,,,,,,,,odrive
,23.971729278564453,-0.16806970536708832,0.021386414766311646,2.563476800918579,-2.1208977699279785,28.523855209350586,0,0,0,,,,,,,,,,,odrive
,24.002344131469727,0.3535235524177551,-0.008246580138802528,2.792358636856079,-2.026432514190674,28.52608871459961,0,0,0,,,,,,,,,,,odrive
,23.895191192626953,-0.4215380549430847,0.12908411026000977,2.578735589981079,-1.9402928352355957,28.527931213378906,0,0,0,,,,,,,,,,,odrive
,23.910497665405273,-0.41903236508369446,-0.07653690874576569,2.807617425918579,-1.9058785438537598,28.5286865234375,0,0,0,,,,,,,,,,,odrive
,23.94111442565918,-0.8628235459327698,0.06384074687957764,2.716064691543579,-1.856050968170166,28.529808044433594,0,0,0,,,,,,,,,,,odrive
,24.002344131469727,-0.12838655710220337,0.2536200284957886,3.005981683731079,-1.763094425201416,28.531902313232422,0,0,0,,,,,,,,,,,odrive
,23.925806045532227,-1.135306477546692,0.13404032588005066,2.761841058731079,-1.7223782539367676,28.53265380859375,0,0,0,,,,,,,,,,,odrive
,23.925806045532227,0.1532503366470337,0.02739817276597023,3.173828363418579,-1.6676239967346191,28.533531188964844,0,0,0,,,,,,,,,,,odrive
,24.01765251159668,-0.24908921122550964,-0.021920889616012573,2.960205316543579,-1.5754036903381348,28.535316467285156,0,0,0,,,,,,,,,,,odrive
,23.925806045532227,-0.653740406036377,0.14125774800777435,3.219604730606079,-1.5612492561340332,28.535560607910156,0,0,0,,,,,,,,,,,odrive
,24.002344131469727,-0.5479080677032471,0.054229237139225006,3.524780511856079,-1.464409351348877,28.53736114501953,0,0,0,,,,,,,,,,,odrive
,23.910497665405273,-0.5837007761001587,0.12198176234960556,3.356933832168579,-1.4160523414611816,28.538360595703125,0,0,0,,,,,,,,,,,odrive
,23.9564208984375,-0.10008777678012848,-0.0354590080678463,3.356933832168579,-1.2987256050109863,28.540987014770508,0,0,0,,,,,,,,,,,odrive
,23.925806045532227,-0.07992056012153625,0.053137972950935364,3.707885980606079,-1.2414326667785645,28.542449951171875,0,0,0,,,,,,,,,,,odrive
,23.910497665405273,-0.011441959999501705,-0.14559650421142578,3.738403558731079,-1.1887822151184082,28.543800354003906,0,0,0,,,,,,,,,,,odrive
,23.910497665405273,-0.9588333368301392,-0.031798142939805984,3.463745355606079,-1.13120698928833,28.54522705078125,0,0,0,,,,,,,,,,,odrive
,23.94111442565918,0.25348207354545593,-0.07026677578687668,3.402710199356079,-1.021608829498291,28.547863006591797,0,0,0,,,,,,,,,,,odrive
,23.925806045532227,-0.6303684711456299,0.10838049650192261,3.112793207168579,-1.00706148147583,28.548198699951172,0,0,0,,,,,,,,,,,odrive
,23.910497665405273,-0.4685131311416626,-0.11793500185012817,3.112793207168579,-0.9237275123596191,28.55021095275879,0,0,0,,,,,,,,,,,odrive
,23.925806045532227,-0.07741810381412506,-0.09541769325733185,3.112793207168579,-0.8260178565979004,28.552541732788086,0,0,0,,,,,,,,,,,odrive
,23.8033447265625,-0.2932296395301819,0.024387046694755554,3.143310785293579,-0.7546219825744629,28.55448341369629,0,0,0,,,,,,,,,,,odrive
,23.94111442565918,0.22737859189510345,-0.013168658129870892,2.853393793106079,-0.6651902198791504,28.556913375854492,0,0,0,,,,,,,,,,,odrive
,23.910497665405273,0.07129962742328644,0.0005563870072364807,2.914428949356079,-0.6108231544494629,28.558401107788086,0,0,0,,,,,,,,,,,odrive
,23.94111442565918,0.3754415810108185,-0.012170471251010895,2.792358636856079,-0.5946221351623535,28.558820724487305,0,0,0,,,,,,,,,,,odrive
,24.032958984375,0.22512641549110413,-0.023414278402924538,2.685547113418579,-0.5227837562561035,28.56089973449707,0,0,0,,,,,,,,,,,odrive
,23.8798828125,-0.02330104261636734,-0.05191575363278389,2.365112543106079,-0.44640016555786133,28.563228607177734,0,0,0,,,,,,,,,,,odrive
,24.002344131469727,-0.6752529740333557,0.03504040464758873,2.380371332168579,-0.43752145767211914,28.563505172729492,0,0,0,,,,,,,,,,,odrive
,23.971729278564453,-0.6570457816123962,0.11725132912397385,2.136230707168579,-0.37071657180786133,28.56540870666504,0,0,0,,,,,,,,,,,odrive
,23.910497665405273,-0.09284193813800812,-0.0555078499019146,2.334594964981079,-0.33339738845825195,28.566387176513672,0,0,0,,,,,,,,,,,odrive
,23.8798828125,-0.8339829444885254,-0.08026482909917831,1.968384027481079,-0.3006863594055176,28.56743812561035,0,0,0,,,,,,,,,,,odrive
,23.9564208984375,-1.4773938655853271,0.10513382405042648,1.724243402481079,-0.22998476028442383,28.569942474365234,0,0,0,,,,,,,,,,,odrive
,23.9564208984375,-0.04743032529950142,0.03588622808456421,2.182007074356079,-0.2001175880432129,28.57099151611328,0,0,0,,,,,,,,,,,odrive
,23.910497665405273,-0.38196590542793274,-0.015784889459609985,1.754760980606079,-0.16407060623168945,28.57244300842285,0,0,0,,,,,,,,,,,odrive
,23.910497665405273,0.6582445502281189,0.030855078250169754,2.136230707168579,-0.10218095779418945,28.575153350830078,0,0,0,,,,,,,,,,,odrive
,23.9564208984375,-0.4280990660190582,0.03733103722333908,1.571655511856079,-0.09279298782348633,28.575571060180664,0,0,0,,,,,,,,,,,odrive
,24.002344131469727,-0.1779550164937973,-0.08085387945175171,1.892090082168579,-0.04772806167602539,28.57752799987793,0,0,0,,,,,,,,,,,odrive
,23.849267959594727,-0.5787113308906555,-0.020952850580215454,1.434326410293579,-0.02168893814086914,28.578596115112305,0,0,0,,,,,,,,,,,odrive
,23.925806045532227,0.1628694087266922,-0.027514753863215446,1.831054925918579,0.03312063589692116,28.581188201904297,0,0,0,,,,,,,,,,,odrive
,23.895191192626953,0.73614901304245,0.02511685900390148,1.586914300918579,0.03956365957856178,28.581493377685547,0,0,0,,,,,,,,,,,odrive
,23.910497665405273,-0.3479841649532318,0.11498866975307465,1.419067621231079,0.07581473141908646,28.58349609375,0,0,0,,,,,,,,,,,odrive
,23.94111442565918,-0.34450316429138184,-0.006230585277080536,1.037597894668579,0.12076330929994583,28.58598518371582,0,0,0,,,,,,,,,,,odrive
,23.94111442565918,-1.4040895700454712,0.02242438681423664,0.9765627384185791,0.12453413754701614,28.586271286010742,0,0,0,,,,,,,,,,,odrive
,23.910497665405273,-0.35119572281837463,0.09836019575595856,1.205444574356079,0.1567702442407608,28.588003158569336,0,0,0,,,,,,,,,,,odrive
,23.9564208984375,0.2752678096294403,0.027772344648838043,1.266479730606079,0.17770148813724518,28.589025497436523,0,0,0,,,,,,,,,,,odrive
,24.002344131469727,-1.1162182092666626,0.05994837358593941,0.8087160587310791,0.19008590281009674,28.590017318725586,0,0,0,,,,,,,,,,,odrive
,24.032958984375,0.15638478100299835,-0.030356530100107193,0.9765627384185791,0.23764373362064362,28.59358024597168,0,0,0,,,,,,,,,,,odrive
,23.94111442565918,0.623947024345398,0.04441408812999725,1.113891839981079,0.243987575173378,28.593976974487305,0,0,0,,,,,,,,,,,odrive
,24.002344131469727,0.295371413230896,-0.019693268463015556,0.6866457462310791,0.2531295120716095,28.594707489013672,0,0,0,,,,,,,,,,,odrive
,23.895191192626953,-1.4216593503952026,0.09976286441087723,0.3967287540435791,0.26111939549446106,28.59613609313965,0,0,0,,,,,,,,,,,odrive
,23.925806045532227,-0.8528485298156738,-0.09627627581357956,0.7476809024810791,0.2727828323841095,28.597579956054688,0,0,0,,,,,,,,,,,odrive
,23.9564208984375,0.0025306567549705505,0.0618765652179718,0.6866457462310791,0.28735116124153137,28.598867416381836,0,0,0,,,,,,,,,,,odrive
,24.032958984375,-0.24038422107696533,-0.027089886367321014,0.6103518009185791,0.29556038975715637,28.59986686706543,0,0,0,,,,,,,,,,,odrive
,23.971729278564453,0.21418097615242004,-0.09121496230363846,0.4882814884185791,0.3159652054309845,28.601858139038086,0,0,0,,,,,,,,,,,odrive
,24.032958984375,0.08528067171573639,0.01943378522992134,0.2593996524810791,0.320191890001297,28.60262107849121,0,0,0,,,,,,,,,,,odrive
,23.910497665405273,-0.5150652527809143,-0.013700583018362522,0.0915529727935791,0.3226180374622345,28.603431701660156,0,0,0,,,,,,,,,,,odrive
,24.032958984375,-0.7821870446205139,-0.03428901359438896,0.0,0.32385018467903137,28.604778289794922,0,0,0,,,,,,,,,,,odrive
,23.925806045532227,-0.3634565770626068,0.02623428963124752,0.0,0.3237052261829376,28.60525894165039,0,0,0,,,,,,,,,,,odrive
,23.94111442565918,-0.526107132434845,0.03399331867694855,0.0,0.32339051365852356,28.605789184570312,0,0,0,,,,,,,,,,,odrive
